nom,adresse,code_postal,latitude,longitude
SG TARNEAUD,"124 AV MARCEL HAEGELEN, 18000 BOURGES",18000,47.0664075,2.3712572
SG TARNEAUD,"24A RUE DU COMMERCE, 18000 BOURGES",18000,47.0856254,2.3940507
SG TARNEAUD,"163 RUE JEANNE D'ARC, 18500 MEHUN SUR YEVRE",18500,47.1448299,2.2177773
SG TARNEAUD,"7 RUE BENJAMIN CONSTANT, 18200 ST AMAND MONTROND",18200,46.7212664,2.504539
SG TARNEAUD,"4 PL HOTEL DE VILLE, 18230 ST DOULCHARD",18230,47.1000188,2.3727491
SG TARNEAUD,"21 AV G. DORDAIN, 18400 ST FLORENT SUR CHER",18400,46.9921896,2.2552381
SG TARNEAUD,"14 RUE REPUBLIQUE, 18100 VIERZON",18100,47.2021091,2.1710302
