nom,adresse,code_postal,latitude,longitude,region_source
CAISSE DE CREDIT MUTUEL AMBERIEU EN BUGEY,32 AVENUE DU GENERAL DE GAULLE 01500 AMBERIEU EN BUGEY,1500.0,45.9630317,5.3572432,https://www.creditmutuel.fr/fr/caisses-et-distributeurs/Departements.aspx?regionId=84
CAISSE DE CREDIT MUTUEL BELLEY,31 GRANDE RUE 01300 BELLEY,1300.0,45.759947,5.688204,https://www.creditmutuel.fr/fr/caisses-et-distributeurs/Departements.aspx?regionId=84
CAISSE DE CREDIT MUTUEL BRESSAN,4 COURS DE VERDUN 01000 BOURG EN BRESSE,1000.0,46.206087,5.2250287,https://www.creditmutuel.fr/fr/caisses-et-distributeurs/Departements.aspx?regionId=84
CAISSE DE CREDIT MUTUEL BRESSAN - BOURG  PROFESSIONNELS,1 AVENUE ALPHONSE BAUDIN 01000 BOURG EN BRESSE,1000.0,46.2005559,5.2186221,https://www.creditmutuel.fr/fr/caisses-et-distributeurs/Departements.aspx?regionId=84
CAISSE DE CREDIT MUTUEL ENSEIGNANT LYON - CME LYON BOURG EN BRESSE,1 RUE CHARLES ROBIN 01000 BOURG EN BRESSE,1000.0,46.2056432,5.2291151,https://www.creditmutuel.fr/fr/caisses-et-distributeurs/Departements.aspx?regionId=84
CAISSE DE CREDIT MUTUEL DAGNEUX,1103 RUE DE GENEVE 01120 DAGNEUX,1120.0,45.8509047,5.0698453,https://www.creditmutuel.fr/fr/caisses-et-distributeurs/Departements.aspx?regionId=84
CAISSE DE CREDIT MUTUEL GESSIEN - DIVONNE,203 AVENUE DE GENEVE 01220 DIVONNE LES BAINS,1220.0,46.3488477,6.1466573,https://www.creditmutuel.fr/fr/caisses-et-distributeurs/Departements.aspx?regionId=84
CAISSE DE CREDIT MUTUEL SAINT GENIS FERNEY - FERNEY VOLTAIRE,17 GRAND RUE 01210 FERNEY VOLTAIRE,1210.0,46.2563966,6.109901,https://www.creditmutuel.fr/fr/caisses-et-distributeurs/Departements.aspx?regionId=84
CAISSE DE CREDIT MUTUEL GESSIEN - GEX,RUE DES TERREAUX 01170 GEX,1170.0,46.3338095,6.0589146,https://www.creditmutuel.fr/fr/caisses-et-distributeurs/Departements.aspx?regionId=84
CAISSE DE CREDIT MUTUEL MEXIMIEUX,11 PLACE VAUGELAS 01800 MEXIMIEUX,1800.0,45.9031834,5.1920541,https://www.creditmutuel.fr/fr/caisses-et-distributeurs/Departements.aspx?regionId=84
CAISSE DE CREDIT MUTUEL MIRIBEL,918 GRANDE RUE 01700 MIRIBEL,1700.0,45.823669,4.952054,https://www.creditmutuel.fr/fr/caisses-et-distributeurs/Departements.aspx?regionId=84
CAISSE DE CREDIT MUTUEL OYONNAX,5 RUE BICHAT 01100 OYONNAX,1100.0,46.2586953,5.655833,https://www.creditmutuel.fr/fr/caisses-et-distributeurs/Departements.aspx?regionId=84
CAISSE DE CREDIT MUTUEL BEAUJOLAIS RIVES DE SAONE - TREVOUX,23 RUE DU PALAIS 01600 TREVOUX,1600.0,45.940325,4.778507,https://www.creditmutuel.fr/fr/caisses-et-distributeurs/Departements.aspx?regionId=84
CAISSE DE CREDIT MUTUEL BELLEGARDE SUR VALSERINE - BELLEGARDE VALSERINE,1 RUE DE LA REPUBLIQUE 01200 VALSERHONE,1200.0,46.1082907,5.8290334,https://www.creditmutuel.fr/fr/caisses-et-distributeurs/Departements.aspx?regionId=84
CAISSE DE CREDIT MUTUEL VILLARS LES DOMBES,434 AVENUE CHARLES DE GAULLE 01330 VILLARS LES DOMBES,1330.0,45.9965693,5.027909,https://www.creditmutuel.fr/fr/caisses-et-distributeurs/Departements.aspx?regionId=84
CAISSE DE CREDIT MUTUEL DE COMMENTRY,18 PLACE DU 14 JUILLET 03600 COMMENTRY,3600.0,46.2892061,2.741989,https://www.creditmutuel.fr/fr/caisses-et-distributeurs/Departements.aspx?regionId=84
CAISSE DE CREDIT MUTUEL DE CUSSET,42 PLACE VICTOR HUGO 03300 CUSSET,3300.0,46.1325533,3.456406,https://www.creditmutuel.fr/fr/caisses-et-distributeurs/Departements.aspx?regionId=84
CAISSE DE CREDIT MUTUEL DE MONTLUCON,9 BOULEVARD DE COURTAIS 03100 MONTLUCON,3100.0,46.3402395,2.6017619,https://www.creditmutuel.fr/fr/caisses-et-distributeurs/Departements.aspx?regionId=84
CAISSE DE CREDIT MUTUEL DE MONTLUCON - LES MARAIS,59 AVENUE ALBERT THOMAS 03100 MONTLUCON,3100.0,46.3532599,2.5895403,https://www.creditmutuel.fr/fr/caisses-et-distributeurs/Departements.aspx?regionId=84
CAISSE DE CREDIT MUTUEL DE MOULINS,27 RUE GAMBETTA 03000 MOULINS,3000.0,46.5633947,3.3325857,https://www.creditmutuel.fr/fr/caisses-et-distributeurs/Departements.aspx?regionId=84
CAISSE DE CREDIT MUTUEL ENSEIGNANT - CME BUREAU MOULINS,27 RUE GAMBETTA 03000 MOULINS,3000.0,46.5633947,3.3325857,https://www.creditmutuel.fr/fr/caisses-et-distributeurs/Departements.aspx?regionId=84
CAISSE DE CREDIT MUTUEL DE VICHY,16 RUE DU PRESIDENT WILSON 03200 VICHY,3200.0,46.1246239,3.4212983,https://www.creditmutuel.fr/fr/caisses-et-distributeurs/Departements.aspx?regionId=84
CAISSE DE CREDIT MUTUEL D'YZEURE,26 PLACE JULES FERRY 03400 YZEURE,3400.0,46.5661733,3.3540023,https://www.creditmutuel.fr/fr/caisses-et-distributeurs/Departements.aspx?regionId=84
CAISSE DE CREDIT MUTUEL ANNONAY,20 AVENUE DE L EUROPE 07100 ANNONAY,7100.0,45.2417302,4.671636,https://www.creditmutuel.fr/fr/caisses-et-distributeurs/Departements.aspx?regionId=84
CAISSE DE CREDIT MUTUEL AUBENAS,43 BOULEVARD GAMBETTA 07200 AUBENAS,7200.0,44.6195097,4.3906614,https://www.creditmutuel.fr/fr/caisses-et-distributeurs/Departements.aspx?regionId=84
CAISSE DE CREDIT MUTUEL AUBENAS - PONSON,6 B CHEMIN DE PONSON 07200 AUBENAS,7200.0,44.6181244,4.4007291,https://www.creditmutuel.fr/fr/caisses-et-distributeurs/Departements.aspx?regionId=84
CAISSE DE CREDIT MUTUEL ANNONAY - DAVEZIEUX,15 RUE DE LA JUSTICE 07430 DAVEZIEUX,7430.0,45.2602726,4.7100836,https://www.creditmutuel.fr/fr/caisses-et-distributeurs/Departements.aspx?regionId=84
CAISSE DE CREDIT MUTUEL DE CRUSSOL,652 AVENUE DE LA REPUBLIQUE 07500 GUILHERAND GRANGES,7500.0,44.9356208,4.8748123,https://www.creditmutuel.fr/fr/caisses-et-distributeurs/Departements.aspx?regionId=84
CAISSE DE CREDIT MUTUEL LE TEIL,40 RUE DE LA REPUBLIQUE 07400 LE TEIL,7400.0,44.552717,4.6854361,https://www.creditmutuel.fr/fr/caisses-et-distributeurs/Departements.aspx?regionId=84
CAISSE DE CREDIT MUTUEL PRIVAS,5 COURS DU PALAIS 07000 PRIVAS,7000.0,44.7345425,4.5995367,https://www.creditmutuel.fr/fr/caisses-et-distributeurs/Departements.aspx?regionId=84
CAISSE DE CREDIT MUTUEL TOURNON,28 AVENUE MARECHAL FOCH 07300 TOURNON SUR RHONE,7300.0,45.0711501,4.825251,https://www.creditmutuel.fr/fr/caisses-et-distributeurs/Departements.aspx?regionId=84
CAISSE DE CREDIT MUTUEL D'AURILLAC,9 AVENUE GAMBETTA 15000 AURILLAC,15000.0,44.9277816,2.4452819,https://www.creditmutuel.fr/fr/caisses-et-distributeurs/Departements.aspx?regionId=84
CAISSE DE CREDIT MUTUEL DE MAURIAC,15 AVENUE CHARLES PERIE 15200 MAURIAC,15200.0,45.2193925,2.3356091,https://www.creditmutuel.fr/fr/caisses-et-distributeurs/Departements.aspx?regionId=84
CAISSE DE CREDIT MUTUEL DU NORD DROME - ANNEYRON,14 PLACE RAMBAUD 26140 ANNEYRON,26140.0,45.2714863,4.8872867,https://www.creditmutuel.fr/fr/caisses-et-distributeurs/Departements.aspx?regionId=84
CAISSE DE CREDIT MUTUEL BOURG DE PEAGE,PLACE DE DELAY D AGIER 26300 BOURG DE PEAGE,26300.0,45.0391219,5.0485814,https://www.creditmutuel.fr/fr/caisses-et-distributeurs/Departements.aspx?regionId=84
CAISSE DE CREDIT MUTUEL BOURG LES VALENCE,26 AVENUE MARC URTIN 26500 BOURG LES VALENCE,26500.0,44.9443743,4.8942262,https://www.creditmutuel.fr/fr/caisses-et-distributeurs/Departements.aspx?regionId=84
CAISSE DE CREDIT MUTUEL PLAINE DE VALENCE - BUREAU CHABEUIL,22 AVENUE DE VALENCE 26120 CHABEUIL,26120.0,44.9012578,5.0153168,https://www.creditmutuel.fr/fr/caisses-et-distributeurs/Departements.aspx?regionId=84
CAISSE DE CREDIT MUTUEL CREST,8 RUE ARISTIDE DUMONT 26400 CREST,26400.0,44.7274901,5.0244702,https://www.creditmutuel.fr/fr/caisses-et-distributeurs/Departements.aspx?regionId=84
CAISSE DE CREDIT MUTUEL LORIOL,ZONE ARTISANALE DES CROZES 26270 LORIOL SUR DROME,26270.0,,,https://www.creditmutuel.fr/fr/caisses-et-distributeurs/Departements.aspx?regionId=84
CAISSE DE CREDIT MUTUEL MONTELIMAR CENTRE,15 BOULEVARD MARRE DESMARAIS 26200 MONTELIMAR,26200.0,44.5580651,4.7479985,https://www.creditmutuel.fr/fr/caisses-et-distributeurs/Departements.aspx?regionId=84
CAISSE DE CREDIT MUTUEL MONTELIMAR SUD,198 ROUTE DE MARSEILLE 26200 MONTELIMAR,26200.0,44.5292737,4.7457213,https://www.creditmutuel.fr/fr/caisses-et-distributeurs/Departements.aspx?regionId=84
CAISSE DE CREDIT MUTUEL NYONS,2 AVENUE HENRI ROCHIER 26110 NYONS,26110.0,44.3610039,5.1390363,https://www.creditmutuel.fr/fr/caisses-et-distributeurs/Departements.aspx?regionId=84
CAISSE DE CREDIT MUTUEL PIERRELATTE,5 AVENUE JEAN PERRIN 26700 PIERRELATTE,26700.0,44.3779407,4.6996768,https://www.creditmutuel.fr/fr/caisses-et-distributeurs/Departements.aspx?regionId=84
CAISSE DE CREDIT MUTUEL PORTES LES VALENCE,55 B RUE JEAN JAURES 26800 PORTES LES VALENCE,26800.0,44.8723773,4.8760219,https://www.creditmutuel.fr/fr/caisses-et-distributeurs/Departements.aspx?regionId=84
CAISSE DE CREDIT MUTUEL ROMANS CENTRE,PLACE JULES NADI 26100 ROMANS SUR ISERE,26100.0,45.0443936,5.0519331,https://www.creditmutuel.fr/fr/caisses-et-distributeurs/Departements.aspx?regionId=84
CAISSE DE CREDIT MUTUEL ROMANS DROME DES COLLINES - ROMANS DROME COLLINES,86 AVENUE JEAN MOULIN 26100 ROMANS SUR ISERE,26100.0,45.0592242,5.0503105,https://www.creditmutuel.fr/fr/caisses-et-distributeurs/Departements.aspx?regionId=84
CAISSE DE CREDIT MUTUEL TAIN L'HERMITAGE,450 AVENUE DES LOTS 26600 TAIN L HERMITAGE,26600.0,45.0687403,4.8655075,https://www.creditmutuel.fr/fr/caisses-et-distributeurs/Departements.aspx?regionId=84
CAISSE DE CREDIT MUTUEL VALENCE CENTRE,28 AVENUE VICTOR HUGO 26000 VALENCE,26000.0,44.9291877,4.8905166,https://www.creditmutuel.fr/fr/caisses-et-distributeurs/Departements.aspx?regionId=84
CAISSE DE CREDIT MUTUEL PLAINE DE VALENCE,21 RUE HENRI BARBUSSE 26000 VALENCE,26000.0,44.8692514,4.8789809,https://www.creditmutuel.fr/fr/caisses-et-distributeurs/Departements.aspx?regionId=84
CAISSE DE CREDIT MUTUEL PROFESSIONS DE SANTE - CMPS VALENCE,471 AVENUE VICTOR HUGO 26000 VALENCE,26000.0,44.9072943,4.8835376,https://www.creditmutuel.fr/fr/caisses-et-distributeurs/Departements.aspx?regionId=84
CAISSE DE CREDIT MUTUEL VALENCE CENTRE - SUD,471 AVENUE VICTOR HUGO 26000 VALENCE,26000.0,44.9072943,4.8835376,https://www.creditmutuel.fr/fr/caisses-et-distributeurs/Departements.aspx?regionId=84
BANQUE EUROPEENNE DU CREDIT MUTUEL GRENOBLE - BECM VALENCE,471 AVENUE VICTOR HUGO 26000 VALENCE,26000.0,44.9072943,4.8835376,https://www.creditmutuel.fr/fr/caisses-et-distributeurs/Departements.aspx?regionId=84
CAISSE DE CREDIT MUTUEL BOURGOIN JALLIEU,27 AVENUE DU GRAND TISSAGE 38300 BOURGOIN JALLIEU,38300.0,45.5907034,5.2742923,https://www.creditmutuel.fr/fr/caisses-et-distributeurs/Departements.aspx?regionId=84
CAISSE DE CREDIT MUTUEL COEUR GRESIVAUDAN,907 AVENUE AMBROISE CROIZAT 38920 CROLLES,38920.0,45.2740982,5.8830639,https://www.creditmutuel.fr/fr/caisses-et-distributeurs/Departements.aspx?regionId=84
CAISSE DE CREDIT MUTUEL ECHIROLLES HOTEL DE VILLE,42 AVENUE DU 8 MAI 1945 38130 ECHIROLLES,38130.0,45.143897,5.7160055,https://www.creditmutuel.fr/fr/caisses-et-distributeurs/Departements.aspx?regionId=84
CAISSE DE CREDIT MUTUEL FONTAINE,130 B AVENUE DU VERCORS 38600 FONTAINE,38600.0,45.1924305,5.6960836,https://www.creditmutuel.fr/fr/caisses-et-distributeurs/Departements.aspx?regionId=84
CAISSE DE CREDIT MUTUEL GRENOBLE RIVET,11 PLACE GUSTAVE RIVET 38000 GRENOBLE,38000.0,45.181557,5.7275129,https://www.creditmutuel.fr/fr/caisses-et-distributeurs/Departements.aspx?regionId=84
CAISSE DE CREDIT MUTUEL GRENOBLE CENTRE EAUX CLAIRES,8 AVENUE ALSACE LORRAINE 38000 GRENOBLE,38000.0,45.1892986,5.7222737,https://www.creditmutuel.fr/fr/caisses-et-distributeurs/Departements.aspx?regionId=84
CAISSE DE CREDIT MUTUEL ENSEIGNANT GRENOBLE,53 RUE BIZANET 38000 GRENOBLE,38000.0,45.1972667,5.7375374,https://www.creditmutuel.fr/fr/caisses-et-distributeurs/Departements.aspx?regionId=84
CAISSE DE CREDIT MUTUEL PROFESSIONS DE SANTE - CMPS GRENOBLE,3 PLACE DOCTEUR GIRARD 38000 GRENOBLE,38000.0,45.1973285,5.7370913,https://www.creditmutuel.fr/fr/caisses-et-distributeurs/Departements.aspx?regionId=84
CAISSE DE CREDIT MUTUEL GRENOBLE CENTRE EAUX CLAIRES - BUREAU EAUX CLAIRES,46 BOULEVARD JOSEPH VALLIER 38000 GRENOBLE,38000.0,45.1803523,5.7080803,https://www.creditmutuel.fr/fr/caisses-et-distributeurs/Departements.aspx?regionId=84
CAISSE DE CREDIT MUTUEL HEYRIEUX-LA VERPILLIERE,40 AVENUE DU GENERAL LECLERC 38540 HEYRIEUX,38540.0,,,https://www.creditmutuel.fr/fr/caisses-et-distributeurs/Departements.aspx?regionId=84
CAISSE DE CREDIT MUTUEL HAUT GRESIVAUDAN - LE TOUVET,RUE DE PREPONTIN 38660 LE TOUVET,38660.0,45.3608009,5.9605425,https://www.creditmutuel.fr/fr/caisses-et-distributeurs/Departements.aspx?regionId=84
CAISSE DE CREDIT MUTUEL COEUR GRESIVAUDAN - LE VERSOUD,613 ROUTE DE GRENOBLE 38420 LE VERSOUD,38420.0,45.2089617,5.8524939,https://www.creditmutuel.fr/fr/caisses-et-distributeurs/Departements.aspx?regionId=84
CAISSE DE CREDIT MUTUEL MEYLAN ILE VERTE,42 AVENUE DE LA PLAINE FLEURIE 38240 MEYLAN,38240.0,45.2031458,5.760721,https://www.creditmutuel.fr/fr/caisses-et-distributeurs/Departements.aspx?regionId=84
CAISSE DE CREDIT MUTUEL HAUT GRESIVAUDAN - PONTCHARRA,998 AVENUE DE LA GARE 38530 PONTCHARRA,38530.0,45.4343936,6.0086057,https://www.creditmutuel.fr/fr/caisses-et-distributeurs/Departements.aspx?regionId=84
CAISSE DE CREDIT MUTUEL PONT DE CHERUY,8 RUE GRAMMONT 38230 PONT DE CHERUY,38230.0,45.7501053,5.1684422,https://www.creditmutuel.fr/fr/caisses-et-distributeurs/Departements.aspx?regionId=84
CAISSE DE CREDIT MUTUEL VIENNE - PONT EVEQUE,CENTRE COMMERCIAL 38780 PONT EVEQUE,38780.0,,,https://www.creditmutuel.fr/fr/caisses-et-distributeurs/Departements.aspx?regionId=84
CAISSE DE CREDIT MUTUEL CANTON DE ROUSSILLON - SALAISE SUR SANNE,46 RUE DU 19 MARS 1962 38150 SALAISE SUR SANNE,38150.0,45.338208,4.804998,https://www.creditmutuel.fr/fr/caisses-et-distributeurs/Departements.aspx?regionId=84
CAISSE DE CREDIT MUTUEL SEYSSINS,100 AVENUE GENERAL DE GAULLE 38180 SEYSSINS,38180.0,45.1597512,5.6934475,https://www.creditmutuel.fr/fr/caisses-et-distributeurs/Departements.aspx?regionId=84
CAISSE DE CREDIT MUTUEL DU VOIRONNAIS - TULLINS,55 RUE GENERAL DE GAULLE 38210 TULLINS,38210.0,45.2983446,5.4834814,https://www.creditmutuel.fr/fr/caisses-et-distributeurs/Departements.aspx?regionId=84
CAISSE DE CREDIT MUTUEL VIENNE,2 COURS ROMESTANG 38200 VIENNE,38200.0,45.523897,4.8740935,https://www.creditmutuel.fr/fr/caisses-et-distributeurs/Departements.aspx?regionId=84
CAISSE DE CREDIT MUTUEL VIF,22 PLACE DE LA LIBERATION 38450 VIF,38450.0,45.0561081,5.6687504,https://www.creditmutuel.fr/fr/caisses-et-distributeurs/Departements.aspx?regionId=84
CAISSE DE CREDIT MUTUEL VIZILLE,742 AVENUE MAURICE THOREZ 38220 VIZILLE,38220.0,45.0828179,5.7650303,https://www.creditmutuel.fr/fr/caisses-et-distributeurs/Departements.aspx?regionId=84
CAISSE DE CREDIT MUTUEL DU VOIRONNAIS,8 AVENUE LEON ET JOANNY TARDY 38500 VOIRON,38500.0,45.3647111,5.5941704,https://www.creditmutuel.fr/fr/caisses-et-distributeurs/Departements.aspx?regionId=84
CAISSE DE CREDIT MUTUEL  ANDREZIEUX BOUTHEON,23 AVENUE DE SAINT ETIENNE 42160 ANDREZIEUX BOUTHEON,42160.0,45.5262808,4.2741399,https://www.creditmutuel.fr/fr/caisses-et-distributeurs/Departements.aspx?regionId=84
CAISSE DE CREDIT MUTUEL FOREZIEN - BOEN SUR LIGNON,562 CHEMIN DE GIRAUD 42130 BOEN SUR LIGNON,42130.0,45.7355032,4.0084905,https://www.creditmutuel.fr/fr/caisses-et-distributeurs/Departements.aspx?regionId=84
CAISSE DE CREDIT MUTUEL CHARLIEU,15 PLACE DE LA BOUVERIE 42190 CHARLIEU,42190.0,46.1578955,4.1741336,https://www.creditmutuel.fr/fr/caisses-et-distributeurs/Departements.aspx?regionId=84
CAISSE DE CREDIT MUTUEL FOREZIEN - FEURS,11 PLACE ANTOINE DRIVET 42110 FEURS,42110.0,45.7435303,4.2213071,https://www.creditmutuel.fr/fr/caisses-et-distributeurs/Departements.aspx?regionId=84
CAISSE DE CREDIT MUTUEL FIRMINY ET DU HAUT FOREZ,7 PLACE DU BREUIL 42700 FIRMINY,42700.0,45.3887107,4.2877731,https://www.creditmutuel.fr/fr/caisses-et-distributeurs/Departements.aspx?regionId=84
CAISSE DE CREDIT MUTUEL LE COTEAU,42 AVENUE DE LA LIBERATION 42120 LE COTEAU,42120.0,46.029788,4.083564,https://www.creditmutuel.fr/fr/caisses-et-distributeurs/Departements.aspx?regionId=84
CAISSE DE CREDIT MUTUEL MONTBRISON,18 T BOULEVARD LACHEZE 42600 MONTBRISON,42600.0,45.605389,4.0646651,https://www.creditmutuel.fr/fr/caisses-et-distributeurs/Departements.aspx?regionId=84
CAISSE DE CREDIT MUTUEL MONTROND LES BAINS,91 AVENUE DU PONT 42210 MONTROND LES BAINS,42210.0,45.6440476,4.2302399,https://www.creditmutuel.fr/fr/caisses-et-distributeurs/Departements.aspx?regionId=84
CAISSE DE CREDIT MUTUEL D' URFE - NOIRETABLE,4 RUE CLAUDE PEURIERE 42440 NOIRETABLE,42440.0,45.8162647,3.7673602,https://www.creditmutuel.fr/fr/caisses-et-distributeurs/Departements.aspx?regionId=84
CAISSE DE CREDIT MUTUEL ROANNE RENAISON,72 RUE DU COMMERCE 42370 RENAISON,42370.0,46.0515528,3.9237537,https://www.creditmutuel.fr/fr/caisses-et-distributeurs/Departements.aspx?regionId=84
CAISSE DE CREDIT MUTUEL RIORGES,315 AVENUE CHARLES DE GAULLE 42153 RIORGES,42153.0,46.0513967,4.0660844,https://www.creditmutuel.fr/fr/caisses-et-distributeurs/Departements.aspx?regionId=84
CAISSE DE CREDIT MUTUEL PAYS DU GIER - RIVE DE GIER,67 RUE JEAN JAURES 42800 RIVE DE GIER,42800.0,45.5312256,4.621243,https://www.creditmutuel.fr/fr/caisses-et-distributeurs/Departements.aspx?regionId=84
CAISSE DE CREDIT MUTUEL ROANNE RENAISON - VICTOR HUGO,23 PLACE VICTOR HUGO 42300 ROANNE,42300.0,46.0380009,4.0575167,https://www.creditmutuel.fr/fr/caisses-et-distributeurs/Departements.aspx?regionId=84
CAISSE DE CREDIT MUTUEL ENSEIGNANT LOIRE HAUTE LOIRE - CME ROANNE,23 PLACE VICTOR HUGO 42300 ROANNE,42300.0,46.0380009,4.0575167,https://www.creditmutuel.fr/fr/caisses-et-distributeurs/Departements.aspx?regionId=84
CAISSE DE CREDIT MUTUEL MONTBRISON - SURY LE COMTAL,2 PLACE DU 8 MAI 42450 SURY LE COMTAL,42450.0,45.5395703,4.1845418,https://www.creditmutuel.fr/fr/caisses-et-distributeurs/Departements.aspx?regionId=84
CAISSE DE CREDIT MUTUEL BRIOUDE,CITE LAFAYETTE 43100 BRIOUDE,43100.0,,,https://www.creditmutuel.fr/fr/caisses-et-distributeurs/Departements.aspx?regionId=84
CAISSE DE CREDIT MUTUEL BRIVES CHARENSAC,127 AVENUE CHARLES DUPUY 43700 BRIVES CHARENSAC,43700.0,45.0506227,3.912845,https://www.creditmutuel.fr/fr/caisses-et-distributeurs/Departements.aspx?regionId=84
CAISSE DE CREDIT MUTUEL ENSEIGNANT LOIRE HAUTE LOIRE - CME BRIVES CHARENSAC,127 AVENUE CHARLES DUPUY 43700 BRIVES CHARENSAC,43700.0,45.0506227,3.912845,https://www.creditmutuel.fr/fr/caisses-et-distributeurs/Departements.aspx?regionId=84
CAISSE DE CREDIT MUTUEL PORTE DU VELAY,18 AVENUE DE LA LIBERATION 43120 MONISTROL SUR LOIRE,43120.0,45.2914387,4.1717396,https://www.creditmutuel.fr/fr/caisses-et-distributeurs/Departements.aspx?regionId=84
CAISSE DE CREDIT MUTUEL YSSINGEAUX - TENCE,7 RUE D ANNONAY 43190 TENCE,43190.0,45.1145356,4.2911266,https://www.creditmutuel.fr/fr/caisses-et-distributeurs/Departements.aspx?regionId=84
CAISSE DE CREDIT MUTUEL LE PUY EN VELAY - VALS PRES LE PUY,16 AVENUE CHARLES MASSOT 43750 VALS PRES LE PUY,43750.0,45.029775,3.8764971,https://www.creditmutuel.fr/fr/caisses-et-distributeurs/Departements.aspx?regionId=84
CAISSE DE CREDIT MUTUEL YSSINGEAUX,1 PLACE DE LA VICTOIRE 43200 YSSINGEAUX,43200.0,45.1437948,4.1241693,https://www.creditmutuel.fr/fr/caisses-et-distributeurs/Departements.aspx?regionId=84
CAISSE DE CREDIT MUTUEL VALLEE DE LA DORE - BUREAU AMBERT,23 AVENUE GEORGES CLEMENCEAU 63600 AMBERT,63600.0,45.5517559,3.7394911,https://www.creditmutuel.fr/fr/caisses-et-distributeurs/Departements.aspx?regionId=84
CAISSE DE CREDIT MUTUEL D'AUBIERE,113 AVENUE JEAN MOULIN 63170 AUBIERE,63170.0,45.7528479,3.1310383,https://www.creditmutuel.fr/fr/caisses-et-distributeurs/Departements.aspx?regionId=84
CAISSE DE CREDIT MUTUEL DE BEAUMONT - SAINT JACQUES - - ST JACQUES,8 AVENUE MARECHAL LECLERC 63110 BEAUMONT,63110.0,45.7532256,3.0850365,https://www.creditmutuel.fr/fr/caisses-et-distributeurs/Departements.aspx?regionId=84
CAISSE DE CREDIT MUTUEL DE CEBAZAT,3 AVENUE DU 8 MAI 63118 CEBAZAT,63118.0,45.8304699,3.1025269,https://www.creditmutuel.fr/fr/caisses-et-distributeurs/Departements.aspx?regionId=84
CAISSE DE CREDIT MUTUEL DE CHAMALIERES,30 B AVENUE DE ROYAT 63400 CHAMALIERES,63400.0,45.7697492,3.0579075,https://www.creditmutuel.fr/fr/caisses-et-distributeurs/Departements.aspx?regionId=84
CAISSE DE CREDIT MUTUEL DE CLERMONT-FERRAND JAUDE,61 B RUE BLATIN 63000 CLERMONT FERRAND,63000.0,45.7769118,3.0797006,https://www.creditmutuel.fr/fr/caisses-et-distributeurs/Departements.aspx?regionId=84
CAISSE DE CREDIT MUTUEL ENSEIGNANT - CREDIT MUTUEL ENSEIGNANT,59 B BOULEVARD LAFAYETTE 63000 CLERMONT FERRAND,63000.0,45.770744,3.1007858,https://www.creditmutuel.fr/fr/caisses-et-distributeurs/Departements.aspx?regionId=84
CENTRE D'AFFAIRES ENTREPRISE CMMC - CENTRE D'AFFAIRES ENT CMMC,61 RUE BLATIN 63000 CLERMONT FERRAND,63000.0,45.7765435,3.0765604,https://www.creditmutuel.fr/fr/caisses-et-distributeurs/Departements.aspx?regionId=84
CENTRE D'AFFAIRES AGRICULTURE,61 RUE BLATIN 63000 CLERMONT FERRAND,63000.0,45.7765435,3.0765604,https://www.creditmutuel.fr/fr/caisses-et-distributeurs/Departements.aspx?regionId=84
BANQUE EUROPEENNE DU CREDIT MUTUEL SAINT ETIENNE - CLERMONT FERRAND,61 RUE BLATIN 63000 CLERMONT FERRAND,63000.0,45.7765435,3.0765604,https://www.creditmutuel.fr/fr/caisses-et-distributeurs/Departements.aspx?regionId=84
CAISSE DE CREDIT MUTUEL DE BEAUMONT - SAINT JACQUES - BUR CLERMONT NEUF SOLEILS,2 BOULEVARD LOUIS LOUCHEUR 63000 CLERMONT FERRAND,63000.0,45.7627586,3.0985779,https://www.creditmutuel.fr/fr/caisses-et-distributeurs/Departements.aspx?regionId=84
CAISSE DE CREDIT MUTUEL DE COURNON,2 PLACE JOSEPH GARDET 63800 COURNON D AUVERGNE,63800.0,45.7398674,3.1973346,https://www.creditmutuel.fr/fr/caisses-et-distributeurs/Departements.aspx?regionId=84
CAISSE DE CREDIT MUTUEL D'ISSOIRE,14 BOULEVARD DE LA MANLIERE 63500 ISSOIRE,63500.0,45.5429332,3.2470821,https://www.creditmutuel.fr/fr/caisses-et-distributeurs/Departements.aspx?regionId=84
CAISSE DE CREDIT MUTUEL DE RIOM - RIOM MOZAC,100 AVENUE JEAN JAURES 63200 MOZAC,63200.0,45.8902966,3.0759202,https://www.creditmutuel.fr/fr/caisses-et-distributeurs/Departements.aspx?regionId=84
CAISSE DE CREDIT MUTUEL DE COURNON - PONT DU CHATEAU,19 RUE DE L HOTEL DE VILLE 63430 PONT DU CHATEAU,63430.0,45.7988979,3.2483103,https://www.creditmutuel.fr/fr/caisses-et-distributeurs/Departements.aspx?regionId=84
CAISSE DE CREDIT MUTUEL DE RIOM,1 PLACE MALOUET 63200 RIOM,63200.0,45.8944421,3.1125038,https://www.creditmutuel.fr/fr/caisses-et-distributeurs/Departements.aspx?regionId=84
CAISSE DE CREDIT MUTUEL VALLEE DE LA DORE,27 AVENUE DU GENERAL DE GAULLE 63300 THIERS,63300.0,45.8410706,3.508735,https://www.creditmutuel.fr/fr/caisses-et-distributeurs/Departements.aspx?regionId=84
CAISSE DE CREDIT MUTUEL D' ENTRE LOIRE ET RHONE - AMPLEPUIS,2 PLACE DE L EUROPE 69550 AMPLEPUIS,69550.0,45.9727956,4.3319402,https://www.creditmutuel.fr/fr/caisses-et-distributeurs/Departements.aspx?regionId=84
CAISSE DE CREDIT MUTUEL BEAUJOLAIS RIVES DE SAONE - ANSE,58 AVENUE DU PRE AUX MOUTONS 69480 ANSE,69480.0,45.9398555,4.7184227,https://www.creditmutuel.fr/fr/caisses-et-distributeurs/Departements.aspx?regionId=84
CAISSE DE CREDIT MUTUEL BRIGNAIS,134 RUE DU GENERAL DE GAULLE 69530 BRIGNAIS,69530.0,45.6729769,4.7534277,https://www.creditmutuel.fr/fr/caisses-et-distributeurs/Departements.aspx?regionId=84
CAISSE DE CREDIT MUTUEL BRON,140 AVENUE FRANKLIN ROOSEVELT 69500 BRON,69500.0,45.7336377,4.9080081,https://www.creditmutuel.fr/fr/caisses-et-distributeurs/Departements.aspx?regionId=84
CAISSE DE CREDIT MUTUEL CALUIRE JEAN MOULIN,5 MONTEE CASTELLANE 69300 CALUIRE ET CUIRE,69300.0,45.7986935,4.8412305,https://www.creditmutuel.fr/fr/caisses-et-distributeurs/Departements.aspx?regionId=84
CAISSE DE CREDIT MUTUEL DES  MONTS  D OR - CHAMPAGNE AU MONT D OR,46 AVENUE LANESSAN 69410 CHAMPAGNE AU MONT D OR,69410.0,45.7952561,4.7924667,https://www.creditmutuel.fr/fr/caisses-et-distributeurs/Departements.aspx?regionId=84
CAISSE DE CREDIT MUTUEL DE LA TOUR ET CHARBONNIERES - CHARBONNIERES LES BAINS,SQUARE DE VERDUN 69260 CHARBONNIERES LES BAINS,69260.0,45.782475,4.7361531,https://www.creditmutuel.fr/fr/caisses-et-distributeurs/Departements.aspx?regionId=84
CAISSE DE CREDIT MUTUEL CHASSIEU,5 AVENUE DU PROGRES 69680 CHASSIEU,69680.0,45.7377165,4.9689216,https://www.creditmutuel.fr/fr/caisses-et-distributeurs/Departements.aspx?regionId=84
CAISSE DE CREDIT MUTUEL CONDRIEU,32 A RUE NATIONALE 69420 CONDRIEU,69420.0,45.4617344,4.7676171,https://www.creditmutuel.fr/fr/caisses-et-distributeurs/Departements.aspx?regionId=84
CAISSE DE CREDIT MUTUEL CRAPONNE,117 AVENUE PIERRE DUMOND 69290 CRAPONNE,69290.0,45.7472694,4.7212157,https://www.creditmutuel.fr/fr/caisses-et-distributeurs/Departements.aspx?regionId=84
CAISSE DE CREDIT MUTUEL DECINES-VAULX,112 AVENUE JEAN JAURES 69150 DECINES CHARPIEU,69150.0,45.7692502,4.9467437,https://www.creditmutuel.fr/fr/caisses-et-distributeurs/Departements.aspx?regionId=84
CAISSE DE CREDIT MUTUEL ECULLY,4 RUE BENOIT TABARD 69130 ECULLY,69130.0,45.7736956,4.7773609,https://www.creditmutuel.fr/fr/caisses-et-distributeurs/Departements.aspx?regionId=84
CAISSE DE CREDIT MUTUEL FRANCHEVILLE,36 GRANDE RUE 69340 FRANCHEVILLE,69340.0,45.7392052,4.7720173,https://www.creditmutuel.fr/fr/caisses-et-distributeurs/Departements.aspx?regionId=84
CAISSE DE CREDIT MUTUEL GIVORS,1 PLACE HENRI BARBUSSE 69700 GIVORS,69700.0,45.5819887,4.7737871,https://www.creditmutuel.fr/fr/caisses-et-distributeurs/Departements.aspx?regionId=84
CAISSE DE CREDIT MUTUEL LYON REPUBLIQUE,12 RUE DE LA REPUBLIQUE 69002 LYON,69002.0,45.7651097,4.835769,https://www.creditmutuel.fr/fr/caisses-et-distributeurs/Departements.aspx?regionId=84
CAISSE DE CREDIT MUTUEL LYON PERRACHE-CONFLUENCE,5 COURS CHARLEMAGNE 69002 LYON,69002.0,45.7471666,4.8248848,https://www.creditmutuel.fr/fr/caisses-et-distributeurs/Departements.aspx?regionId=84
CAISSE DE CREDIT MUTUEL LYON PERRACHE-CONFLUENCE - CONFLUENCE,91 BIS COURS CHARLEMAGNE 69002 LYON,69002.0,45.7417109,4.8202334,https://www.creditmutuel.fr/fr/caisses-et-distributeurs/Departements.aspx?regionId=84
CAISSE DE CREDIT MUTUEL PART-DIEU PREFECTURE - LYON SAXE PREFECTURE,91 AVENUE DU MARECHAL DE SAXE 69003 LYON,69003.0,,,https://www.creditmutuel.fr/fr/caisses-et-distributeurs/Departements.aspx?regionId=84
CAISSE DE CREDIT MUTUEL LYON MONTCHAT DAUPHINE,70 COURS DOCTEUR LONG 69003 LYON,69003.0,45.7499119,4.8859357,https://www.creditmutuel.fr/fr/caisses-et-distributeurs/Departements.aspx?regionId=84
CAISSE DE CREDIT MUTUEL LYON MONTCHAT DAUPHINE - DAUPHINE LACASSAGNE,34 AVENUE LACASSAGNE 69003 LYON,69003.0,45.7542654,4.8668668,https://www.creditmutuel.fr/fr/caisses-et-distributeurs/Departements.aspx?regionId=84
CAISSE DE CREDIT MUTUEL PART-DIEU PREFECTURE - LYON PART-DIEU LAFAYET,154 COURS LAFAYETTE 69003 LYON,69003.0,45.7635751,4.8554168,https://www.creditmutuel.fr/fr/caisses-et-distributeurs/Departements.aspx?regionId=84
CAISSE DE CREDIT MUTUEL LYON CROIX ROUSSE - CROIX ROUSSE BL,143 BD DE LA CROIX ROUSSE 69004 LYON,69004.0,45.7744884,4.8311566,https://www.creditmutuel.fr/fr/caisses-et-distributeurs/Departements.aspx?regionId=84
CAISSE DE CREDIT MUTUEL LYON CROIX ROUSSE - CROIX ROUSSE AMBRE,PLACE JOANNES AMBRE 69004 LYON,69004.0,45.7816649,4.832795,https://www.creditmutuel.fr/fr/caisses-et-distributeurs/Departements.aspx?regionId=84
CAISSE DE CREDIT MUTUEL LYON LE POINT DU JOUR,4 RUE DES AQUEDUCS 69005 LYON,69005.0,45.7568032,4.7967767,https://www.creditmutuel.fr/fr/caisses-et-distributeurs/Departements.aspx?regionId=84
CAISSE DE CREDIT MUTUEL LYON BELLECOUR SAINT JEAN - SAINT JEAN,PLACE DU CHANGE 69005 LYON,69005.0,45.764474,4.8282991,https://www.creditmutuel.fr/fr/caisses-et-distributeurs/Departements.aspx?regionId=84
CAISSE DE CREDIT MUTUEL LYON TETE D OR - BROTTEAUX MASSENA,36 COURS VITTON 69006 LYON,69006.0,45.7695015,4.8536956,https://www.creditmutuel.fr/fr/caisses-et-distributeurs/Departements.aspx?regionId=84
CAISSE DE CREDIT MUTUEL LYON DUQUESNE,18 RUE DUQUESNE 69006 LYON,69006.0,45.7724836,4.844433,https://www.creditmutuel.fr/fr/caisses-et-distributeurs/Departements.aspx?regionId=84
CAISSE DE CREDIT MUTUEL LYON MARECHAL LYAUTEY,18 PLACE MARECHAL LYAUTEY 69006 LYON,69006.0,45.7678026,4.8426367,https://www.creditmutuel.fr/fr/caisses-et-distributeurs/Departements.aspx?regionId=84
CAISSE DE CREDIT MUTUEL PROFESSIONS DE SANTE LYON - CMPS,31 RUE GARIBALDI 69006 LYON,69006.0,45.7712015,4.8503639,https://www.creditmutuel.fr/fr/caisses-et-distributeurs/Departements.aspx?regionId=84
CAISSE DE CREDIT MUTUEL LYON MARECHAL LYAUTEY - GESTION COPROPRIETES,18 PLACE MARECHAL LYAUTEY 69006 LYON,69006.0,45.7678026,4.8426367,https://www.creditmutuel.fr/fr/caisses-et-distributeurs/Departements.aspx?regionId=84
CAISSE DE CREDIT MUTUEL LYON JEAN MACE,79 AVENUE JEAN JAURES 69007 LYON,69007.0,45.7470411,4.8431568,https://www.creditmutuel.fr/fr/caisses-et-distributeurs/Departements.aspx?regionId=84
CAISSE DE CREDIT MUTUEL LYON GAMBETTA,52 COURS GAMBETTA 69007 LYON,69007.0,45.7538911,4.8466746,https://www.creditmutuel.fr/fr/caisses-et-distributeurs/Departements.aspx?regionId=84
CAISSE DE CREDIT MUTUEL LYON GERLAND,259 AVENUE JEAN JAURES 69007 LYON,69007.0,45.7316826,4.8340076,https://www.creditmutuel.fr/fr/caisses-et-distributeurs/Departements.aspx?regionId=84
CAISSE DE CREDIT MUTUEL ENSEIGNANT LYON - CME,179 AVENUE JEAN JAURES 69007 LYON,69007.0,45.7369283,4.8371341,https://www.creditmutuel.fr/fr/caisses-et-distributeurs/Departements.aspx?regionId=84
CAISSE DE CREDIT MUTUEL LYON FRERES LUMIERE,4 PLACE AMBROISE COURTOIS 69008 LYON,69008.0,45.7448048,4.8708596,https://www.creditmutuel.fr/fr/caisses-et-distributeurs/Departements.aspx?regionId=84
CAISSE DE CREDIT MUTUEL LYON CITE TONY GARNIER,85 BOULEVARD DES ETATS UNIS 69008 LYON,69008.0,45.7317237,4.8661522,https://www.creditmutuel.fr/fr/caisses-et-distributeurs/Departements.aspx?regionId=84
CAISSE DE CREDIT MUTUEL LYON OUEST VAISE - OUEST VAISE SIEGE,22 RUE SERGENT MICHEL BERTHET 69009 LYON,69009.0,45.7676043,4.8053065,https://www.creditmutuel.fr/fr/caisses-et-distributeurs/Departements.aspx?regionId=84
CAISSE DE CREDIT MUTUEL LYON OUEST VAISE - OUEST VAISE BUREAU,2 RUE DU 24 MARS 1852 69009 LYON,69009.0,45.7814996,4.8064309,https://www.creditmutuel.fr/fr/caisses-et-distributeurs/Departements.aspx?regionId=84
CAUTIONNEMENT MUTUEL DE L HABITAT - CMH LYON,50 QUAI PAUL SEDALLIAN 69009 LYON,69009.0,45.7886453,4.8150238,https://www.creditmutuel.fr/fr/caisses-et-distributeurs/Departements.aspx?regionId=84
CAISSE DE CREDIT MUTUEL MEYZIEU,66 B RUE DE LA REPUBLIQUE 69330 MEYZIEU,69330.0,45.7700839,4.9856398,https://www.creditmutuel.fr/fr/caisses-et-distributeurs/Departements.aspx?regionId=84
CAISSE DE CREDIT MUTUEL SAINT PRIEST - MIONS,1 RUE DU 19 MARS 1962 69780 MIONS,69780.0,45.6657957,4.9575694,https://www.creditmutuel.fr/fr/caisses-et-distributeurs/Departements.aspx?regionId=84
CAISSE DE CREDIT MUTUEL NEUVILLE SUR SAONE,12 QUAI PASTEUR 69250 NEUVILLE SUR SAONE,69250.0,45.875564,4.8387058,https://www.creditmutuel.fr/fr/caisses-et-distributeurs/Departements.aspx?regionId=84
CAISSE DE CREDIT MUTUEL RILLIEUX LA PAPE,3006 ROUTE DE STRASBOURG 69140 RILLIEUX LA PAPE,69140.0,45.8208043,4.8975178,https://www.creditmutuel.fr/fr/caisses-et-distributeurs/Departements.aspx?regionId=84
CAISSE DE CREDIT MUTUEL TARARE,5 RUE MEZELLE 69170 TARARE,69170.0,45.8966461,4.4331461,https://www.creditmutuel.fr/fr/caisses-et-distributeurs/Departements.aspx?regionId=84
CAISSE DE CREDIT MUTUEL TASSIN LA DEMI LUNE,52 AVENUE DE LA REPUBLIQUE 69160 TASSIN LA DEMI LUNE,69160.0,45.763996,4.7790547,https://www.creditmutuel.fr/fr/caisses-et-distributeurs/Departements.aspx?regionId=84
CAISSE DE CREDIT MUTUEL DECINES-VAULX - VAULX EN VELIN,20 RUE EMILE ZOLA 69120 VAULX EN VELIN,69120.0,45.7777997,4.9186253,https://www.creditmutuel.fr/fr/caisses-et-distributeurs/Departements.aspx?regionId=84
CAISSE DE CREDIT MUTUEL GRAND PARILLY - VENISSIEUX,12 RUE GAMBETTA 69200 VENISSIEUX,69200.0,45.6981614,4.8833049,https://www.creditmutuel.fr/fr/caisses-et-distributeurs/Departements.aspx?regionId=84
CAISSE DE CREDIT MUTUEL VILLEURBANNE GRATTE CIEL - GR.CIEL,1 AVENUE ARISTIDE BRIAND 69100 VILLEURBANNE,69100.0,45.7669135,4.879196,https://www.creditmutuel.fr/fr/caisses-et-distributeurs/Departements.aspx?regionId=84
CAISSE DE CREDIT MUTUEL VILLEURBANNE GRANDCLEMENT - GDCLEMENT,33 PLACE JULES GRANDCLEMENT 69100 VILLEURBANNE,69100.0,45.7589271,4.887274,https://www.creditmutuel.fr/fr/caisses-et-distributeurs/Departements.aspx?regionId=84
CAISSE DE CREDIT MUTUEL ENSEIGNANT LYON - CME LYON VILLEURBANNE,18 COURS EMILE ZOLA 69100 VILLEURBANNE,69100.0,45.7665419,4.8957003,https://www.creditmutuel.fr/fr/caisses-et-distributeurs/Departements.aspx?regionId=84
CAISSE DE CREDIT MUTUEL LYON TETE D OR - VILLEURBANNE CHARPENNES,3 COURS EMILE ZOLA 69100 VILLEURBANNE,69100.0,45.7706052,4.8625838,https://www.creditmutuel.fr/fr/caisses-et-distributeurs/Departements.aspx?regionId=84
CAISSE DE CREDIT MUTUEL AIX LES BAINS,45 AVENUE DU GRAND PORT 73100 AIX LES BAINS,73100.0,45.6955369,5.909081,https://www.creditmutuel.fr/fr/caisses-et-distributeurs/Departements.aspx?regionId=84
CAISSE DE CREDIT MUTUEL AIX LES BAINS - AIX LE REVARD POLE PRO,1 PLACE DU REVARD 73100 AIX LES BAINS,73100.0,45.6883192,5.9141254,https://www.creditmutuel.fr/fr/caisses-et-distributeurs/Departements.aspx?regionId=84
CAISSE DE CREDIT MUTUEL DES 4 VALLEES,102 RUE DE LA REPUBLIQUE 73200 ALBERTVILLE,73200.0,45.6753183,6.3887186,https://www.creditmutuel.fr/fr/caisses-et-distributeurs/Departements.aspx?regionId=84
CAISSE DE CREDIT MUTUEL DE BASSENS,13 AVENUE DE TURIN 73000 BASSENS,73000.0,45.5728671,5.9484266,https://www.creditmutuel.fr/fr/caisses-et-distributeurs/Departements.aspx?regionId=84
CAISSE DE CREDIT MUTUEL ENSEIGNANT SAVOIE MONT BLANC - CME SAVOIE MONT BLANC,16 RUE FRANCOIS GUISE 73000 CHAMBERY,73000.0,45.578214,5.909043,https://www.creditmutuel.fr/fr/caisses-et-distributeurs/Departements.aspx?regionId=84
CAISSE DE CREDIT MUTUEL CHAMBERY DUCS DE SAVOIE,10 PLACE DE GENEVE 73000 CHAMBERY,73000.0,45.567359,5.918822,https://www.creditmutuel.fr/fr/caisses-et-distributeurs/Departements.aspx?regionId=84
CAISSE DE CREDIT MUTUEL CHAMBERY DUCS DE SAVOIE - GRAND VERGER,16 RUE FRANCOIS GUISE 73000 CHAMBERY,73000.0,45.578214,5.909043,https://www.creditmutuel.fr/fr/caisses-et-distributeurs/Departements.aspx?regionId=84
CAISSE DE CREDIT MUTUEL CHAMBERY DUCS DE SAVOIE - GRAND VERGER POLE PRO,16 RUE FRANCOIS GUISE 73000 CHAMBERY,73000.0,45.578214,5.909043,https://www.creditmutuel.fr/fr/caisses-et-distributeurs/Departements.aspx?regionId=84
CAISSE DE CREDIT MUTUEL DES PROFESSIONS DE SANTE - CMPS SAVOIE MONT BLANC,126 CHEMIN DU MOULIN 73100 GRESY SUR AIX,73100.0,45.722242,5.922154,https://www.creditmutuel.fr/fr/caisses-et-distributeurs/Departements.aspx?regionId=84
CAISSE DE CREDIT MUTUEL COEUR DE SAVOIE,246 AVENUE DE SAVOIE 73800 MONTMELIAN,73800.0,45.5008175,6.0498914,https://www.creditmutuel.fr/fr/caisses-et-distributeurs/Departements.aspx?regionId=84
CAISSE DE CREDIT MUTUEL MONT CHARVIN - UGINE,19 PLACE DE L HOTEL DE VILLE 73400 UGINE,73400.0,45.7519081,6.4199268,https://www.creditmutuel.fr/fr/caisses-et-distributeurs/Departements.aspx?regionId=84
CAISSE DE CREDIT MUTUEL D'EVIAN - VAL D'ABONDANCE - DU VAL D',163 RUE DE LA DRANSE 74360 ABONDANCE,74360.0,46.2805922,6.7154401,https://www.creditmutuel.fr/fr/caisses-et-distributeurs/Departements.aspx?regionId=84
CAISSE DE CREDIT MUTUEL ANNECY CENTRE OUEST,9 RUE DE LA POSTE 74000 ANNECY,74000.0,45.9008536,6.1229255,https://www.creditmutuel.fr/fr/caisses-et-distributeurs/Departements.aspx?regionId=84
CAISSE DE CREDIT MUTUEL ANNECY BONLIEU,39 RUE SOMMEILLER 74000 ANNECY,74000.0,45.9027909,6.1278148,https://www.creditmutuel.fr/fr/caisses-et-distributeurs/Departements.aspx?regionId=84
CAISSE DE CREDIT MUTUEL ANNECY VALLIN FIER,2 RUE LUCIE AUBRAC 74000 ANNECY,74000.0,45.919393,6.123198,https://www.creditmutuel.fr/fr/caisses-et-distributeurs/Departements.aspx?regionId=84
CAISSE DE CREDIT MUTUEL REGION D'ANNEMASSE,8 RUE CHARLES DUPRAZ 74100 ANNEMASSE,74100.0,46.1915024,6.2351249,https://www.creditmutuel.fr/fr/caisses-et-distributeurs/Departements.aspx?regionId=84
CAISSE DE CREDIT MUTUEL DE LA VALLEE VERTE - DE BOEGE,217 RUE DE LA VALLEE VERTE 74420 BOEGE,74420.0,46.2073817,6.4032884,https://www.creditmutuel.fr/fr/caisses-et-distributeurs/Departements.aspx?regionId=84
CAISSE DE CREDIT MUTUEL DU FAUCIGNY,107 AVENUE DES GLIERES 74130 BONNEVILLE,74130.0,46.074988,6.404562,https://www.creditmutuel.fr/fr/caisses-et-distributeurs/Departements.aspx?regionId=84
CAISSE DE CREDIT MUTUEL DE BONS-EN-CHABLAIS,54 AVENUE DU LEMAN 74890 BONS EN CHABLAIS,74890.0,46.2648901,6.3714384,https://www.creditmutuel.fr/fr/caisses-et-distributeurs/Departements.aspx?regionId=84
CAISSE DE CREDIT MUTUEL DU MONT BLANC - CHAMONIX,252 AVENUE MICHEL CROZ 74400 CHAMONIX MONT BLANC,74400.0,45.9233855,6.8711474,https://www.creditmutuel.fr/fr/caisses-et-distributeurs/Departements.aspx?regionId=84
CAISSE DE CREDIT MUTUEL DE LA CLUSE D'ARVE,15 GRANDE RUE 74300 CLUSES,74300.0,46.0603095,6.5803196,https://www.creditmutuel.fr/fr/caisses-et-distributeurs/Departements.aspx?regionId=84
CAISSE DE CREDIT MUTUEL DE LA CLUSE D'ARVE - DE CLUSES SARDAGNE,6 RUE PIERRE TRAPPIER 74300 CLUSES,74300.0,46.0688752,6.5617261,https://www.creditmutuel.fr/fr/caisses-et-distributeurs/Departements.aspx?regionId=84
CAISSE DE CREDIT MUTUEL DE CRANVES-SALES LES VOIRONS,1075 ROUTE DES TATTES DE BORLY 74380 CRANVES SALES,74380.0,46.1836401,6.2792622,https://www.creditmutuel.fr/fr/caisses-et-distributeurs/Departements.aspx?regionId=84
CAISSE DE CREDIT MUTUEL USSES ET SALEVE,260 GRAND RUE 74350 CRUSEILLES,74350.0,46.0334836,6.1072758,https://www.creditmutuel.fr/fr/caisses-et-distributeurs/Departements.aspx?regionId=84
CAISSE DE CREDIT MUTUEL BAS CHABLAIS,90 RUE DU CENTRE 74140 DOUVAINE,74140.0,46.306535,6.3063684,https://www.creditmutuel.fr/fr/caisses-et-distributeurs/Departements.aspx?regionId=84
CAISSE DE CREDIT MUTUEL D'EVIAN - VAL D'ABONDANCE,RUE DU LAC 74500 EVIAN LES BAINS,74500.0,46.4011582,6.5872776,https://www.creditmutuel.fr/fr/caisses-et-distributeurs/Departements.aspx?regionId=84
CAISSE DE CREDIT MUTUEL MONT CHARVIN,125 PLACE GAMBETTA 74210 FAVERGES SEYTHENEX,74210.0,45.7475952,6.2954363,https://www.creditmutuel.fr/fr/caisses-et-distributeurs/Departements.aspx?regionId=84
CAISSE DE CREDIT MUTUEL USSES ET SALEVE - FRANGY-VAL DES USSES,17 PLACE CENTRALE 74270 FRANGY,74270.0,46.0190131,5.9294148,https://www.creditmutuel.fr/fr/caisses-et-distributeurs/Departements.aspx?regionId=84
CAISSE DE CREDIT MUTUEL REGION D'ANNEMASSE - DE GAILLARD,102 RUE DE GENEVE 74240 GAILLARD,74240.0,46.1916082,6.2140502,https://www.creditmutuel.fr/fr/caisses-et-distributeurs/Departements.aspx?regionId=84
CAISSE DE CREDIT MUTUEL MEGEVE,773 ROUTE NATIONALE 74120 MEGEVE,74120.0,45.8619754,6.6241573,https://www.creditmutuel.fr/fr/caisses-et-distributeurs/Departements.aspx?regionId=84
CAISSE DE CREDIT MUTUEL DU HAUT CHABLAIS,196 ROUTE DE LA PLAGNE 74110 MORZINE,74110.0,46.18276,6.7025461,https://www.creditmutuel.fr/fr/caisses-et-distributeurs/Departements.aspx?regionId=84
CAISSE DE CREDIT MUTUEL LA ROCHE - REIGNIER,24 RUE DU DOCTEUR GOY 74930 REIGNIER ESERY,74930.0,46.1356071,6.2714425,https://www.creditmutuel.fr/fr/caisses-et-distributeurs/Departements.aspx?regionId=84
CAISSE DE CREDIT MUTUEL DE L'ALBANAIS,38 AVENUE GANTIN 74150 RUMILLY,74150.0,45.86139,5.94756,https://www.creditmutuel.fr/fr/caisses-et-distributeurs/Departements.aspx?regionId=84
CAISSE DE CREDIT MUTUEL DU MONT BLANC,67 RUE DU MONT BLANC 74700 SALLANCHES,74700.0,45.934284,6.632046,https://www.creditmutuel.fr/fr/caisses-et-distributeurs/Departements.aspx?regionId=84
CAISSE DE CREDIT MUTUEL DE LA VALLEE DU GIFFRE - DE SAMOENS,134 PLACE DU GROS TILLEUL 74340 SAMOENS,74340.0,46.0833353,6.7274107,https://www.creditmutuel.fr/fr/caisses-et-distributeurs/Departements.aspx?regionId=84
CAISSE DE CREDIT MUTUEL BAS CHABLAIS - DE SCIEZ,16 AVENUE DES CHARMES 74140 SCIEZ,74140.0,46.3313623,6.3745492,https://www.creditmutuel.fr/fr/caisses-et-distributeurs/Departements.aspx?regionId=84
CAISSE DE CREDIT MUTUEL PAYS DU LAUDON,4550 ROUTE D ALBERTVILLE 74320 SEVRIER,74320.0,45.8440088,6.1500478,https://www.creditmutuel.fr/fr/caisses-et-distributeurs/Departements.aspx?regionId=84
CAISSE DE CREDIT MUTUEL DE LA VALLEE DU GIFFRE,68 PLACE DU DOCTEUR HUMBERT 74440 TANINGES,74440.0,46.1080275,6.5910075,https://www.creditmutuel.fr/fr/caisses-et-distributeurs/Departements.aspx?regionId=84
CAISSE DE CREDIT MUTUEL DU PAYS DE THONES,2 PLACE AVET 74230 THONES,74230.0,45.8817526,6.3229767,https://www.creditmutuel.fr/fr/caisses-et-distributeurs/Departements.aspx?regionId=84
CAISSE DE CREDIT MUTUEL DU CHABLAIS,12 AVENUE DU GENERAL DE GAULLE 74200 THONON LES BAINS,74200.0,46.3694515,6.4765974,https://www.creditmutuel.fr/fr/caisses-et-distributeurs/Departements.aspx?regionId=84
CAISSE DE CREDIT MUTUEL DU CHABLAIS - DE THONON OUEST,30 AVENUE DE GENEVE 74200 THONON LES BAINS,74200.0,46.3606152,6.4572988,https://www.creditmutuel.fr/fr/caisses-et-distributeurs/Departements.aspx?regionId=84
CAISSE DE CREDIT MUTUEL DU CHABLAIS - CHABLAIS POLE PRO,30 AVENUE DE GENEVE 74200 THONON LES BAINS,74200.0,46.3606152,6.4572988,https://www.creditmutuel.fr/fr/caisses-et-distributeurs/Departements.aspx?regionId=84
CAISSE DE CREDIT MUTUEL DE LA VALLEE VERTE,16 ALLEE DE LA THYOLLIRE 74250 VIUZ EN SALLAZ,74250.0,,,https://www.creditmutuel.fr/fr/caisses-et-distributeurs/Departements.aspx?regionId=84
CAISSE DE CREDIT MUTUEL AUXOIS SUD - ARNAY LE DUC,8 RUE SAULNIER 21230 ARNAY LE DUC,21230.0,47.1329354,4.4888101,https://www.creditmutuel.fr/fr/caisses-et-distributeurs/Departements.aspx?regionId=27
CAISSE DE CREDIT MUTUEL D AUXONNE,104 RUE EMILE GRUET 21130 AUXONNE,21130.0,47.192686,5.3887041,https://www.creditmutuel.fr/fr/caisses-et-distributeurs/Departements.aspx?regionId=27
CAISSE DE CREDIT MUTUEL DE BEAUNE,14 RUE GUSTAVE EIFFEL 21200 BEAUNE,21200.0,47.0415,4.8443785,https://www.creditmutuel.fr/fr/caisses-et-distributeurs/Departements.aspx?regionId=27
CAISSE DE CREDIT MUTUEL DE BEAUNE - FLEURY,6 PLACE FLEURY 21200 BEAUNE,21200.0,47.0230016,4.835893,https://www.creditmutuel.fr/fr/caisses-et-distributeurs/Departements.aspx?regionId=27
CAISSE DE CREDIT MUTUEL DU CHATILLONNAIS,5 PLACE MARMONT 21400 CHATILLON SUR SEINE,21400.0,47.8615619,4.5749801,https://www.creditmutuel.fr/fr/caisses-et-distributeurs/Departements.aspx?regionId=27
CAISSE DE CREDIT MUTUEL DU SUD DIJONNAIS,119 AVENUE ROLAND CARRAZ 21300 CHENOVE,21300.0,47.2908363,5.0148342,https://www.creditmutuel.fr/fr/caisses-et-distributeurs/Departements.aspx?regionId=27
CAISSE DE CREDIT MUTUEL DIJON THEATRE MIRANDE,1 RUE LAMONNOYE 21000 DIJON,21000.0,47.3215902,5.0435901,https://www.creditmutuel.fr/fr/caisses-et-distributeurs/Departements.aspx?regionId=27
CAISSE DE CREDIT MUTUEL DE DIJON AUDITORIUM,15 BOULEVARD DE LA MARNE 21000 DIJON,21000.0,47.3291781,5.0504337,https://www.creditmutuel.fr/fr/caisses-et-distributeurs/Departements.aspx?regionId=27
CAISSE DE CREDIT MUTUEL PROFESSIONS DE SANTE - CMPS BOURGOGNE CHAMPAGNE,1 AVENUE DE LA DECOUVERTE 21000 DIJON,21000.0,47.3546051,5.0452329,https://www.creditmutuel.fr/fr/caisses-et-distributeurs/Departements.aspx?regionId=27
CAISSE DE CREDIT MUTUEL DIJON EIFFEL,67 AVENUE GUSTAVE EIFFEL 21000 DIJON,21000.0,47.3138198,5.0183055,https://www.creditmutuel.fr/fr/caisses-et-distributeurs/Departements.aspx?regionId=27
CAISSE DE CREDIT MUTUEL ENSEIGNANT BOURGOGNE CENTRE,4 RUE JEANNE BARRET 21000 DIJON,21000.0,47.3662751,5.0499509,https://www.creditmutuel.fr/fr/caisses-et-distributeurs/Departements.aspx?regionId=27
CAISSE DE CREDIT MUTUEL DIJON TOISON D OR,26 AVENUE ALBERT CAMUS 21000 DIJON,21000.0,47.3535796,5.0468412,https://www.creditmutuel.fr/fr/caisses-et-distributeurs/Departements.aspx?regionId=27
CAISSE DE CREDIT MUTUEL DIJON THEATRE MIRANDE - THEATRE - MIRANDE,63 RUE DE MIRANDE 21000 DIJON,21000.0,47.3173178,5.0613309,https://www.creditmutuel.fr/fr/caisses-et-distributeurs/Departements.aspx?regionId=27
CAISSE DE CREDIT MUTUEL DE DIJON AUDITORIUM - GALILEE,2 PLACE GALILEE 21000 DIJON,21000.0,47.3319249,5.0669527,https://www.creditmutuel.fr/fr/caisses-et-distributeurs/Departements.aspx?regionId=27
CAISSE DE CREDIT MUTUEL DE SEMUR EN AUXOIS - EPOISSES,PLACE DU JEU DE PAUME 21460 EPOISSES,21460.0,47.5073096,4.173007,https://www.creditmutuel.fr/fr/caisses-et-distributeurs/Departements.aspx?regionId=27
CAISSE DE CREDIT MUTUEL MIREBEAU PONTAILLER - FONTAINE FRANCAISE,PLACE HENRI IV 21610 FONTAINE FRANCAISE,21610.0,47.5257371,5.369854,https://www.creditmutuel.fr/fr/caisses-et-distributeurs/Departements.aspx?regionId=27
CAISSE DE CREDIT MUTUEL FONTAINE TALANT - DE FONTAINE LES DIJON,37 R DU FAUBOURG SAINT NICOLAS 21121 FONTAINE LES DIJON,21121.0,47.3383701,5.0314397,https://www.creditmutuel.fr/fr/caisses-et-distributeurs/Departements.aspx?regionId=27
CAISSE DE CREDIT MUTUEL DE GENLIS,4 RUE PASTEUR 21110 GENLIS,21110.0,47.2416758,5.22399,https://www.creditmutuel.fr/fr/caisses-et-distributeurs/Departements.aspx?regionId=27
CAISSE DE CREDIT MUTUEL DE GEVREY CHAMBERTIN,1 ROUTE DE BEAUNE 21220 GEVREY CHAMBERTIN,21220.0,47.2073013,4.9715315,https://www.creditmutuel.fr/fr/caisses-et-distributeurs/Departements.aspx?regionId=27
CAISSE DE CREDIT MUTUEL PAYS DES TROIS RIVIERES - PAYS DES 3 RIVIERES,23 RUE DOMINIQUE ANCEMOT 21120 IS SUR TILLE,21120.0,47.5226673,5.1127545,https://www.creditmutuel.fr/fr/caisses-et-distributeurs/Departements.aspx?regionId=27
CAISSE DE CREDIT MUTUEL DE LONGVIC,18 ROUTE DE DIJON 21600 LONGVIC,21600.0,47.2853806,5.0631879,https://www.creditmutuel.fr/fr/caisses-et-distributeurs/Departements.aspx?regionId=27
CAISSE DE CREDIT MUTUEL DU SUD DIJONNAIS - MARSANNAY CHAMPAGNE HAU,18 PLACE DU PETIT FORUM 21160 MARSANNAY LA COTE,21160.0,,,https://www.creditmutuel.fr/fr/caisses-et-distributeurs/Departements.aspx?regionId=27
CAISSE DE CREDIT MUTUEL DE BEAUNE - MEURSAULT,14 RUE CHARLES GIRAUD 21190 MEURSAULT,21190.0,46.9736342,4.7828274,https://www.creditmutuel.fr/fr/caisses-et-distributeurs/Departements.aspx?regionId=27
CAISSE DE CREDIT MUTUEL MIREBEAU PONTAILLER,34 GRANDE RUE 21310 MIREBEAU SUR BEZE,21310.0,47.4007689,5.3134023,https://www.creditmutuel.fr/fr/caisses-et-distributeurs/Departements.aspx?regionId=27
CAISSE DE CREDIT MUTUEL DE MONTBARD VENAREY,PLACE LEON GAMBETTA 21500 MONTBARD,21500.0,,,https://www.creditmutuel.fr/fr/caisses-et-distributeurs/Departements.aspx?regionId=27
CAISSE DE CREDIT MUTUEL DE DIJON AUDITORIUM - PLOMBIERES LES DIJON,9 AVENUE FRANCOIS MITTERRAND 21370 PLOMBIERES LES DIJON,21370.0,47.3393439,4.9728639,https://www.creditmutuel.fr/fr/caisses-et-distributeurs/Departements.aspx?regionId=27
CAISSE DE CREDIT MUTUEL MIREBEAU PONTAILLER - PONTAILLER SUR SAONE,43 RUE DU 8 MAI 1945 21270 PONTAILLER SUR SAONE,21270.0,47.3046022,5.4157343,https://www.creditmutuel.fr/fr/caisses-et-distributeurs/Departements.aspx?regionId=27
CAISSE DE CREDIT MUTUEL AUXOIS SUD - POUILLY EN AUXOIS,11 AVENUE GENERAL DE GAULLE 21320 POUILLY EN AUXOIS,21320.0,47.2628944,4.5553512,https://www.creditmutuel.fr/fr/caisses-et-distributeurs/Departements.aspx?regionId=27
CAISSE DE CREDIT MUTUEL QUETIGNY CHEVIGNY,4 PLACE CENTRALE ROGER REMOND 21800 QUETIGNY,21800.0,47.3133124,5.1104439,https://www.creditmutuel.fr/fr/caisses-et-distributeurs/Departements.aspx?regionId=27
CAISSE DE CREDIT MUTUEL DE SAULIEU,3 RUE DE LA FOIRE 21210 SAULIEU,21210.0,47.2787195,4.2303457,https://www.creditmutuel.fr/fr/caisses-et-distributeurs/Departements.aspx?regionId=27
CAISSE DE CREDIT MUTUEL PAYS DES TROIS RIVIERES - DE SELONGEY,1 AVENUE EDOUARD SPAHR 21260 SELONGEY,21260.0,47.5806723,5.1649089,https://www.creditmutuel.fr/fr/caisses-et-distributeurs/Departements.aspx?regionId=27
CAISSE DE CREDIT MUTUEL DE SEMUR EN AUXOIS,3 RUE DE LA LIBERTE 21140 SEMUR EN AUXOIS,21140.0,47.4915258,4.3341164,https://www.creditmutuel.fr/fr/caisses-et-distributeurs/Departements.aspx?regionId=27
CAISSE DE CREDIT MUTUEL DU VAL DE SAONE SUD,4 GR DU FG SAINT GEORGES 21250 SEURRE,21250.0,46.997252,5.146798,https://www.creditmutuel.fr/fr/caisses-et-distributeurs/Departements.aspx?regionId=27
CAISSE DE CREDIT MUTUEL FONTAINE TALANT - DE,34 BOULEVARD DE TROYES 21240 TALANT,21240.0,47.337089,5.011872,https://www.creditmutuel.fr/fr/caisses-et-distributeurs/Departements.aspx?regionId=27
CAISSE DE CREDIT MUTUEL DE MONTBARD VENAREY - VENAREY LES LAUMES,3 AVENUE JEAN JAURES 21150 VENAREY LES LAUMES,21150.0,47.5428826,4.4516033,https://www.creditmutuel.fr/fr/caisses-et-distributeurs/Departements.aspx?regionId=27
CAISSE DE CREDIT MUTUEL AUDINCOURT,14 ALLEE DU CHENE 25400 AUDINCOURT,25400.0,47.483176,6.8459241,https://www.creditmutuel.fr/fr/caisses-et-distributeurs/Departements.aspx?regionId=27
CAISSE DE CREDIT MUTUEL BAUME VALDAHON ROUGEMONT,20 RUE DE LA PRAIRIE 25110 BAUME LES DAMES,25110.0,47.3484035,6.3560147,https://www.creditmutuel.fr/fr/caisses-et-distributeurs/Departements.aspx?regionId=27
BANQUE EUROPEENNE DU CREDIT MUTUEL BESANCON - BECM,3 BIS AVENUE ELISEE CUSENIER 25000 BESANCON,25000.0,47.2412112,6.0257541,https://www.creditmutuel.fr/fr/caisses-et-distributeurs/Departements.aspx?regionId=27
CAISSE DE CREDIT MUTUEL BESANCON UNION,4 RUE GUSTAVE COURBET 25000 BESANCON,25000.0,47.2399621,6.0235736,https://www.creditmutuel.fr/fr/caisses-et-distributeurs/Departements.aspx?regionId=27
CAISSE DE CREDIT MUTUEL BESANCON ST CLAUDE,6 RUE JEAN WYRSCH 25000 BESANCON,25000.0,47.2546006,6.0160881,https://www.creditmutuel.fr/fr/caisses-et-distributeurs/Departements.aspx?regionId=27
CAISSE DE CREDIT MUTUEL BESANCON MONTRAPON MARNAY,13 B AVENUE DE MONTRAPON 25000 BESANCON,25000.0,47.2442138,6.0118465,https://www.creditmutuel.fr/fr/caisses-et-distributeurs/Departements.aspx?regionId=27
CAISSE DE CREDIT MUTUEL DES PROFESSIONS DE SANTE DE FC - CMPS FRANCHE COMTE BESANCO,15 B AVENUE FONTAINE ARGENT 25000 BESANCON,25000.0,47.2443926,6.0315496,https://www.creditmutuel.fr/fr/caisses-et-distributeurs/Departements.aspx?regionId=27
CAISSE DE CREDIT MUTUEL ENSEIGNANT FRANCHE COMTE,5 RUE MADELEINE BRES 25000 BESANCON,25000.0,47.2419902,5.9812071,https://www.creditmutuel.fr/fr/caisses-et-distributeurs/Departements.aspx?regionId=27
CAISSE DE CREDIT MUTUEL BESANCON UNION - PALENTE,154 RUE DE BELFORT 25000 BESANCON,25000.0,47.2592071,6.0457709,https://www.creditmutuel.fr/fr/caisses-et-distributeurs/Departements.aspx?regionId=27
CAISSE DE CREDIT MUTUEL BESANCON UNION - LES CHAPRAIS,1 PLACE FLORE 25000 BESANCON,25000.0,47.2452293,6.0279207,https://www.creditmutuel.fr/fr/caisses-et-distributeurs/Departements.aspx?regionId=27
CAISSE DE CREDIT MUTUEL GRAND BESANCON OUEST - CHATEAUFARINE,14 RUE ANDRE BRETON 25000 BESANCON,25000.0,47.2165301,5.9492677,https://www.creditmutuel.fr/fr/caisses-et-distributeurs/Departements.aspx?regionId=27
CAISSE DE CREDIT MUTUEL BETHONCOURT HERICOURT,2 RUE DU CHAMP DU MOULIN 25200 BETHONCOURT,25200.0,47.5261806,6.7976526,https://www.creditmutuel.fr/fr/caisses-et-distributeurs/Departements.aspx?regionId=27
CAISSE DE CREDIT MUTUEL BESANCON ST CLAUDE - VALENTIN,ROUTE DE CHATILLON 25870 CHATILLON LE DUC,25870.0,47.2979461,5.9949047,https://www.creditmutuel.fr/fr/caisses-et-distributeurs/Departements.aspx?regionId=27
CAISSE DE CREDIT MUTUEL PONTARLIER,6 RUE ANDRE ROZ 25300 DOUBS,25300.0,46.9244099,6.3422189,https://www.creditmutuel.fr/fr/caisses-et-distributeurs/Departements.aspx?regionId=27
CAISSE DE CREDIT MUTUEL ETUPES BEAUCOURT,3 AV DU GENERAL CHARLES DE GAULL 25460 ETUPES,25460.0,,,https://www.creditmutuel.fr/fr/caisses-et-distributeurs/Departements.aspx?regionId=27
CAISSE DE CREDIT MUTUEL CHARMONT SOCHAUX,20 RUE PIERRE CURIE 25200 GRAND CHARMONT,25200.0,47.527216,6.822644,https://www.creditmutuel.fr/fr/caisses-et-distributeurs/Departements.aspx?regionId=27
CAISSE DE CREDIT MUTUEL MAICHE,2 RUE DE SAINT HIPPOLYTE 25120 MAICHE,25120.0,47.2534554,6.801991,https://www.creditmutuel.fr/fr/caisses-et-distributeurs/Departements.aspx?regionId=27
CAISSE DE CREDIT MUTUEL MANDEURE VALENTIGNEY,2 RUE DU 17 NOVEMBRE 25350 MANDEURE,25350.0,47.444856,6.820804,https://www.creditmutuel.fr/fr/caisses-et-distributeurs/Departements.aspx?regionId=27
CAISSE DE CREDIT MUTUEL MONTBELIARD,6 RUE GEORGES CLEMENCEAU 25200 MONTBELIARD,25200.0,47.509835,6.796241,https://www.creditmutuel.fr/fr/caisses-et-distributeurs/Departements.aspx?regionId=27
CAISSE DE CREDIT MUTUEL DES PROFESSIONS DE SANTE DE FC - CMPS MONTBELIARD,1 AVENUE CHABAUD LATOUR 25200 MONTBELIARD,25200.0,47.5138216,6.8082955,https://www.creditmutuel.fr/fr/caisses-et-distributeurs/Departements.aspx?regionId=27
CAISSE DE CREDIT MUTUEL MONTBELIARD - PIED DES GOUTTES,ZAC DU PIED DES GOUTTES 25200 MONTBELIARD,25200.0,47.5000662,6.8116311,https://www.creditmutuel.fr/fr/caisses-et-distributeurs/Departements.aspx?regionId=27
CAISSE DE CREDIT MUTUEL MORTEAU,23 GRANDE RUE 25500 MORTEAU,25500.0,47.057088,6.6045769,https://www.creditmutuel.fr/fr/caisses-et-distributeurs/Departements.aspx?regionId=27
CAISSE DE CREDIT MUTUEL MORTEAU - ORCHAMPS VENNES,1 ROUTE DE GILLEY 25390 ORCHAMPS VENNES,25390.0,47.127847,6.5242855,https://www.creditmutuel.fr/fr/caisses-et-distributeurs/Departements.aspx?regionId=27
CAISSE DE CREDIT MUTUEL ORNANS,PLACE DU JURA 25290 ORNANS,25290.0,47.1046346,6.1494217,https://www.creditmutuel.fr/fr/caisses-et-distributeurs/Departements.aspx?regionId=27
CAISSE DE CREDIT MUTUEL PONTARLIER - ST PIERRE,17 RUE DE SALINS 25300 PONTARLIER,25300.0,46.9059306,6.3489785,https://www.creditmutuel.fr/fr/caisses-et-distributeurs/Departements.aspx?regionId=27
CAISSE DE CREDIT MUTUEL PONT DE ROIDE L ISLE SUR DOUBS,2 A RUE DES BUIS 25150 PONT DE ROIDE VERMONDANS,25150.0,47.3886751,6.7673056,https://www.creditmutuel.fr/fr/caisses-et-distributeurs/Departements.aspx?regionId=27
CAISSE DE CREDIT MUTUEL BAUME VALDAHON ROUGEMONT,4 B PLACE DU MARCHE 25680 ROUGEMONT,25680.0,47.4800883,6.3542935,https://www.creditmutuel.fr/fr/caisses-et-distributeurs/Departements.aspx?regionId=27
CAISSE DE CREDIT MUTUEL BESANCON UNION - SAONE,2 GRANDE RUE 25660 SAONE,25660.0,47.2243033,6.1170107,https://www.creditmutuel.fr/fr/caisses-et-distributeurs/Departements.aspx?regionId=27
CAISSE DE CREDIT MUTUEL SELONCOURT HERIMONCOURT,118 RUE DU GENERAL LECLERC 25230 SELONCOURT,25230.0,47.4613035,6.8604559,https://www.creditmutuel.fr/fr/caisses-et-distributeurs/Departements.aspx?regionId=27
CAISSE DE CREDIT MUTUEL CHARMONT SOCHAUX,7 RUE DE PONTARLIER 25600 SOCHAUX,25600.0,47.514375,6.833151,https://www.creditmutuel.fr/fr/caisses-et-distributeurs/Departements.aspx?regionId=27
CAISSE DE CREDIT MUTUEL BAUME VALDAHON ROUGEMONT - LE,5 RUE DU LAVOIR 25800 VALDAHON,25800.0,47.1484932,6.3437323,https://www.creditmutuel.fr/fr/caisses-et-distributeurs/Departements.aspx?regionId=27
CAISSE DE CREDIT MUTUEL MANDEURE VALENTIGNEY,16 RUE ETIENNE OEHMICHEN 25700 VALENTIGNEY,25700.0,47.4713717,6.8342049,https://www.creditmutuel.fr/fr/caisses-et-distributeurs/Departements.aspx?regionId=27
CAISSE DE CREDIT MUTUEL VILLERS LE LAC,RUE PASTEUR 25130 VILLERS LE LAC,25130.0,47.0590893,6.6674276,https://www.creditmutuel.fr/fr/caisses-et-distributeurs/Departements.aspx?regionId=27
CAISSE DE CREDIT MUTUEL ARBOIS POLIGNY SALINS,34 PLACE DE LA LIBERTE 39600 ARBOIS,39600.0,46.9032103,5.7733365,https://www.creditmutuel.fr/fr/caisses-et-distributeurs/Departements.aspx?regionId=27
CAISSE DE CREDIT MUTUEL LONS LE SAUNIER ROUGET DE LISLE - BLETTERANS,56 RUE LOUIS LE GRAND 39140 BLETTERANS,39140.0,46.74581,5.452935,https://www.creditmutuel.fr/fr/caisses-et-distributeurs/Departements.aspx?regionId=27
CAISSE DE CREDIT MUTUEL CHAMPAGNOLE MOREZ LES ROUSSES,50 RUE DU MARECHAL FOCH 39300 CHAMPAGNOLE,39300.0,46.7435332,5.9127045,https://www.creditmutuel.fr/fr/caisses-et-distributeurs/Departements.aspx?regionId=27
CAISSE DE CREDIT MUTUEL CHAMPAGNOLE MOREZ LES ROUSSES,970 ROUTE BLANCHE 39220 LES ROUSSES,39220.0,46.4797417,6.0636219,https://www.creditmutuel.fr/fr/caisses-et-distributeurs/Departements.aspx?regionId=27
CAISSE DE CREDIT MUTUEL LONS LE SAUNIER ROUGET DE LISLE,11 BOULEVARD GAMBETTA 39000 LONS LE SAUNIER,39000.0,46.6690347,5.5474232,https://www.creditmutuel.fr/fr/caisses-et-distributeurs/Departements.aspx?regionId=27
CAISSE DE CREDIT MUTUEL ENSEIGNANT FRANCHE COMTE - CME LONS,75 COURS SULLY 39000 LONS LE SAUNIER,39000.0,46.6742214,5.5450656,https://www.creditmutuel.fr/fr/caisses-et-distributeurs/Departements.aspx?regionId=27
CAISSE DE CREDIT MUTUEL ARBOIS POLIGNY SALINS,18 PLACE DES DEPORTES 39800 POLIGNY,39800.0,46.8342723,5.708841,https://www.creditmutuel.fr/fr/caisses-et-distributeurs/Departements.aspx?regionId=27
CAISSE DE CREDIT MUTUEL DOLE TAVAUX - DAMPARIS,4 AVENUE KENNEDY 39500 TAVAUX,39500.0,47.042378,5.413505,https://www.creditmutuel.fr/fr/caisses-et-distributeurs/Departements.aspx?regionId=27
CAISSE DE CREDIT MUTUEL DE COSNE SUR LOIRE,1 RUE SAINT JACQUES 58200 COSNE COURS SUR LOIRE,58200.0,47.1753932,3.0184199,https://www.creditmutuel.fr/fr/caisses-et-distributeurs/Departements.aspx?regionId=27
CAISSE DE CREDIT MUTUEL NEVERS OUEST,88 B RUE HENRY BOUQUILLARD 58000 NEVERS,58000.0,46.9958948,3.130352,https://www.creditmutuel.fr/fr/caisses-et-distributeurs/Departements.aspx?regionId=27
CAISSE DE CREDIT MUTUEL DE NEVERS - VARENNES VAUZELLES,64 BOULEVARD CAMILLE DAGONNEAU 58640 VARENNES VAUZELLES,58640.0,47.0153576,3.1497603,https://www.creditmutuel.fr/fr/caisses-et-distributeurs/Departements.aspx?regionId=27
CAISSE DE CREDIT MUTUEL GRAY,5 BD DES GRANDS MOULINS 70100 GRAY,70100.0,47.4485281,5.5900631,https://www.creditmutuel.fr/fr/caisses-et-distributeurs/Departements.aspx?regionId=27
CAISSE DE CREDIT MUTUEL BETHONCOURT HERICOURT,38 AVENUE LEON JOUHAUX 70400 HERICOURT,70400.0,47.5763876,6.7609679,https://www.creditmutuel.fr/fr/caisses-et-distributeurs/Departements.aspx?regionId=27
CAISSE DE CREDIT MUTUEL HAUTE SAONE NORD,15 ESPLANADE DU GENERAL DE GAULL 70200 LURE,70200.0,,,https://www.creditmutuel.fr/fr/caisses-et-distributeurs/Departements.aspx?regionId=27
CAISSE DE CREDIT MUTUEL HAUTE SAONE NORD - LUXEUIL LES BAINS,30 RUE JULES JEANNENEY 70300 LUXEUIL LES BAINS,70300.0,47.8143112,6.3813624,https://www.creditmutuel.fr/fr/caisses-et-distributeurs/Departements.aspx?regionId=27
CAISSE DE CREDIT MUTUEL BESANCON MONTRAPON MARNAY,2 RUE FERNAND PERROT 70150 MARNAY,70150.0,47.2890632,5.7637231,https://www.creditmutuel.fr/fr/caisses-et-distributeurs/Departements.aspx?regionId=27
CAISSE DE CREDIT MUTUEL BESANCON ST CLAUDE - RIOZ,34 RUE DU TACOT 70190 RIOZ,70190.0,47.4322777,6.0668312,https://www.creditmutuel.fr/fr/caisses-et-distributeurs/Departements.aspx?regionId=27
CAISSE DE CREDIT MUTUEL HAUTE SAONE NORD - RONCHAMP,16 PLACE DU 14 JUILLET 70250 RONCHAMP,70250.0,47.699255,6.630814,https://www.creditmutuel.fr/fr/caisses-et-distributeurs/Departements.aspx?regionId=27
CAISSE DE CREDIT MUTUEL VESOUL,1 RUE ROBERT FONTESSE 70000 VESOUL,70000.0,47.637962,6.143757,https://www.creditmutuel.fr/fr/caisses-et-distributeurs/Departements.aspx?regionId=27
CAISSE DE CREDIT MUTUEL ENSEIGNANT FRANCHE COMTE - CME VESOUL,6 RUE VICTOR DOLLE 70000 VESOUL,70000.0,47.6389562,6.152908,https://www.creditmutuel.fr/fr/caisses-et-distributeurs/Departements.aspx?regionId=27
CAISSE DE CREDIT MUTUEL VESOUL - VILLERSEXEL,118 RUE FRANCOIS GRAMMONT 70110 VILLERSEXEL,70110.0,47.5510791,6.4339481,https://www.creditmutuel.fr/fr/caisses-et-distributeurs/Departements.aspx?regionId=27
CAISSE DE CREDIT MUTUEL D AUTUN,14 B AVENUE CHARLES DE GAULLE 71400 AUTUN,71400.0,46.9534188,4.2957003,https://www.creditmutuel.fr/fr/caisses-et-distributeurs/Departements.aspx?regionId=27
CAISSE DE CREDIT MUTUEL DE CHAGNY,2 RUE DU BOURG 71150 CHAGNY,71150.0,46.9103957,4.7523339,https://www.creditmutuel.fr/fr/caisses-et-distributeurs/Departements.aspx?regionId=27
CAISSE DE CREDIT MUTUEL DE CHALON SUR SAONE,21 BOULEVARD DE LA REPUBLIQUE 71100 CHALON SUR SAONE,71100.0,46.7834485,4.8495883,https://www.creditmutuel.fr/fr/caisses-et-distributeurs/Departements.aspx?regionId=27
CAISSE DE CREDIT MUTUEL ENSEIGNANT SAONE ET LOIRE - CME CHALON,2 AVENUE GEORGES POMPIDOU 71100 CHALON SUR SAONE,71100.0,46.779523,4.8459739,https://www.creditmutuel.fr/fr/caisses-et-distributeurs/Departements.aspx?regionId=27
CAISSE DE CREDIT MUTUEL DE CHALON SUR SAONE - CHALON / SAONE-NEPTUNE,22 PLACE DE BEAUNE 71100 CHALON SUR SAONE,71100.0,46.7844163,4.8552302,https://www.creditmutuel.fr/fr/caisses-et-distributeurs/Departements.aspx?regionId=27
CAISSE DE CREDIT MUTUEL PROFESSIONS DE SANTE - CMPS SAONE ET LOIRE,6 B RUE OLIVIER MESSIAEN 71100 CHALON SUR SAONE,71100.0,46.7796461,4.8462512,https://www.creditmutuel.fr/fr/caisses-et-distributeurs/Departements.aspx?regionId=27
CAISSE DE CREDIT MUTUEL DE CHALON SUR SAONE - CHALON PRO,24 BOULEVARD DE LA REPUBLIQUE 71100 CHALON SUR SAONE,71100.0,46.7837454,4.8496948,https://www.creditmutuel.fr/fr/caisses-et-distributeurs/Departements.aspx?regionId=27
CAISSE DE CREDIT MUTUEL DU MACONNAIS - CHARNAY LES MACON,71 GRANDE RUE DE LA COUPEE 71850 CHARNAY LES MACON,71850.0,46.3084081,4.8102881,https://www.creditmutuel.fr/fr/caisses-et-distributeurs/Departements.aspx?regionId=27
CAISSE DE CREDIT MUTUEL DE CHATENOY LE ROYAL,38 AVENUE CONDORCET 71880 CHATENOY LE ROYAL,71880.0,46.7968305,4.8107022,https://www.creditmutuel.fr/fr/caisses-et-distributeurs/Departements.aspx?regionId=27
CAISSE DE CREDIT MUTUEL CHAROLAIS BRIONNAIS - DIGOIN,32 AVENUE DU GENERAL DE GAULLE 71160 DIGOIN,71160.0,46.4815948,3.9831696,https://www.creditmutuel.fr/fr/caisses-et-distributeurs/Departements.aspx?regionId=27
CAISSE DE CREDIT MUTUEL DE MONTCEAU LES MINES - GENELARD,27 RUE NATIONALE 71420 GENELARD,71420.0,46.5806017,4.2357476,https://www.creditmutuel.fr/fr/caisses-et-distributeurs/Departements.aspx?regionId=27
CAISSE DE CREDIT MUTUEL CHAROLAIS BRIONNAIS - GUEUGNON,26 B RUE DE LA LIBERTE 71130 GUEUGNON,71130.0,46.6006373,4.0617929,https://www.creditmutuel.fr/fr/caisses-et-distributeurs/Departements.aspx?regionId=27
CAISSE DE CREDIT MUTUEL LE CREUSOT - CREUSOT FOCH,59 RUE MARECHAL FOCH 71200 LE CREUSOT,71200.0,46.80504,4.4382551,https://www.creditmutuel.fr/fr/caisses-et-distributeurs/Departements.aspx?regionId=27
CAISSE DE CREDIT MUTUEL LE CREUSOT - DE CREUSOT JAURES,16 RUE JEAN JAURES 71200 LE CREUSOT,71200.0,46.8062391,4.4210065,https://www.creditmutuel.fr/fr/caisses-et-distributeurs/Departements.aspx?regionId=27
CAISSE DE CREDIT MUTUEL DU LOUHANNAIS,1 RUE D ALSACE 71500 LOUHANS,71500.0,46.630189,5.226125,https://www.creditmutuel.fr/fr/caisses-et-distributeurs/Departements.aspx?regionId=27
CAISSE DE CREDIT MUTUEL DU MACONNAIS,1313 AVENUE CHARLES DE GAULLE 71000 MACON,71000.0,46.3213473,4.8390044,https://www.creditmutuel.fr/fr/caisses-et-distributeurs/Departements.aspx?regionId=27
CAISSE DE CREDIT MUTUEL ENSEIGNANT LYON - CME LYON MACON,1313 AVENUE CHARLES DE GAULLE 71000 MACON,71000.0,46.3213473,4.8390044,https://www.creditmutuel.fr/fr/caisses-et-distributeurs/Departements.aspx?regionId=27
CAISSE DE CREDIT MUTUEL DE MONTCEAU LES MINES,17 RUE CARNOT 71300 MONTCEAU LES MINES,71300.0,46.6739454,4.3632592,https://www.creditmutuel.fr/fr/caisses-et-distributeurs/Departements.aspx?regionId=27
CAISSE DE CREDIT MUTUEL DE MONTCEAU LES MINES - MONTCEAU BOIS DU VERNE,1 RUE DE LA COUDRAIE 71300 MONTCEAU LES MINES,71300.0,46.6905123,4.3558591,https://www.creditmutuel.fr/fr/caisses-et-distributeurs/Departements.aspx?regionId=27
CAISSE DE CREDIT MUTUEL DE MONTCHANIN,63 AVENUE DE LA REPUBLIQUE 71210 MONTCHANIN,71210.0,46.7505475,4.4687464,https://www.creditmutuel.fr/fr/caisses-et-distributeurs/Departements.aspx?regionId=27
CAISSE DE CREDIT MUTUEL CHAROLAIS BRIONNAIS - PARAY LE MONIAL,1 AVENUE JEAN PAUL II 71600 PARAY LE MONIAL,71600.0,46.4507588,4.119705,https://www.creditmutuel.fr/fr/caisses-et-distributeurs/Departements.aspx?regionId=27
CAISSE DE CREDIT MUTUEL DU VAL DE SAONE SUD - VERDUN SUR LE DOUBS,12 PLACE DE LA LIBERTE 71350 VERDUN SUR LE DOUBS,71350.0,46.8964577,5.0245684,https://www.creditmutuel.fr/fr/caisses-et-distributeurs/Departements.aspx?regionId=27
CAISSE DE CREDIT MUTUEL AUXERRE - LA FONTAINE,12 PLACE CHARLES LEPERE 89000 AUXERRE,89000.0,47.7952958,3.5689234,https://www.creditmutuel.fr/fr/caisses-et-distributeurs/Departements.aspx?regionId=27
CAISSE DE CREDIT MUTUEL AUXERRE - LA CHAINETTE,30 AVENUE CHARLES DE GAULLE 89000 AUXERRE,89000.0,47.8072912,3.5649304,https://www.creditmutuel.fr/fr/caisses-et-distributeurs/Departements.aspx?regionId=27
CAISSE DE CREDIT MUTUEL AVALLON,35 GRANDE RUE ARISTIDE BRIAND 89200 AVALLON,89200.0,47.4884607,3.9075349,https://www.creditmutuel.fr/fr/caisses-et-distributeurs/Departements.aspx?regionId=27
CAISSE DE CREDIT MUTUEL TONNERRE-CHABLIS,15 RUE DU MAL DE LATTRE DE TASSI 89800 CHABLIS,89800.0,,,https://www.creditmutuel.fr/fr/caisses-et-distributeurs/Departements.aspx?regionId=27
CAISSE DE CREDIT MUTUEL CENTRE YONNE - JOIGNY,2 AVENUE GAMBETTA 89300 JOIGNY,89300.0,47.9803171,3.3951632,https://www.creditmutuel.fr/fr/caisses-et-distributeurs/Departements.aspx?regionId=27
CAISSE DE CREDIT MUTUEL CENTRE YONNE - MIGENNES,67 AVENUE JEAN JAURES 89400 MIGENNES,89400.0,47.9637905,3.5136891,https://www.creditmutuel.fr/fr/caisses-et-distributeurs/Departements.aspx?regionId=27
CAISSE DE CREDIT MUTUEL DU SENONAIS - DE SENS,99 RUE DE LA REPUBLIQUE 89100 SENS,89100.0,48.1965894,3.2831098,https://www.creditmutuel.fr/fr/caisses-et-distributeurs/Departements.aspx?regionId=27
CAISSE DE CREDIT MUTUEL TONNERRE-CHABLIS,1 B PLACE DE LA REPUBLIQUE 89700 TONNERRE,89700.0,47.8580089,3.9732507,https://www.creditmutuel.fr/fr/caisses-et-distributeurs/Departements.aspx?regionId=27
CAISSE DE CREDIT MUTUEL CENTRE YONNE - VILLENEUVE SUR YONNE,34 RUE CARNOT 89500 VILLENEUVE SUR YONNE,89500.0,48.0790299,3.293744,https://www.creditmutuel.fr/fr/caisses-et-distributeurs/Departements.aspx?regionId=27
CAISSE DE CREDIT MUTUEL BELFORT SUD,47 GR FRANCOIS MITTERRAND 90800 BAVILLIERS,90800.0,47.6195134,6.8323275,https://www.creditmutuel.fr/fr/caisses-et-distributeurs/Departements.aspx?regionId=27
CAISSE DE CREDIT MUTUEL ETUPES BEAUCOURT,2 RUE PIERRE BEUCLER 90500 BEAUCOURT,90500.0,47.4854025,6.9259215,https://www.creditmutuel.fr/fr/caisses-et-distributeurs/Departements.aspx?regionId=27
CAISSE DE CREDIT MUTUEL BELFORT VOSGES,103 AVENUE JEAN JAURES 90000 BELFORT,90000.0,47.6507191,6.8517513,https://www.creditmutuel.fr/fr/caisses-et-distributeurs/Departements.aspx?regionId=27
CAISSE DE CREDIT MUTUEL BELFORT OUEST,1 RUE JEAN DOLLFUS 90000 BELFORT,90000.0,47.6370862,6.8424625,https://www.creditmutuel.fr/fr/caisses-et-distributeurs/Departements.aspx?regionId=27
CAISSE DE CREDIT MUTUEL BELFORT CENTRE - CENTRE AFFAIRES,9 RUE DE LA REPUBLIQUE 90000 BELFORT,90000.0,47.5642002,6.8515094,https://www.creditmutuel.fr/fr/caisses-et-distributeurs/Departements.aspx?regionId=27
CAISSE DE CREDIT MUTUEL BELFORT SUD - DANJOUTIN,7 RUE D ANDELNANS 90400 DANJOUTIN,90400.0,47.6153413,6.8628223,https://www.creditmutuel.fr/fr/caisses-et-distributeurs/Departements.aspx?regionId=27
CAISSE DE CREDIT MUTUEL VALDOIE GIROMAGNY,47 GRANDE RUE 90200 GIROMAGNY,90200.0,47.7415679,6.8268803,https://www.creditmutuel.fr/fr/caisses-et-distributeurs/Departements.aspx?regionId=27
CAISSE DE CREDIT MUTUEL SUD TERRITOIRE - GRANDVILLARS,33 RUE GENERAL LECLERC 90600 GRANDVILLARS,90600.0,47.5373097,6.9767585,https://www.creditmutuel.fr/fr/caisses-et-distributeurs/Departements.aspx?regionId=27
CAISSE DE CREDIT MUTUEL LACHAPELLE SOUS ROUGEMONT,27 TER RUE GENERAL CHARLES DE GA 90360 LACHAPELLE SOUS ROUGEMONT,90360.0,,,https://www.creditmutuel.fr/fr/caisses-et-distributeurs/Departements.aspx?regionId=27
CAISSE DE CREDIT MUTUEL VALDOIE GIROMAGNY,22 RUE CARNOT 90300 VALDOIE,90300.0,47.6632784,6.8421882,https://www.creditmutuel.fr/fr/caisses-et-distributeurs/Departements.aspx?regionId=27
BANQUE EUROPEENNE DU CREDIT MUTUEL ANGERS - BECM RENNES,12 BOULEVARD VOLTAIRE 35000 RENNES,35000.0,48.1051578,-1.6946783,https://www.creditmutuel.fr/fr/caisses-et-distributeurs/Departements.aspx?regionId=53
CAISSE DE CREDIT MUTUEL BOURGES ST DOULCHARD - MARRONNIERS,1 RUE DE SARREBOURG 18000 BOURGES,18000.0,47.0801793,2.4036048,https://www.creditmutuel.fr/fr/caisses-et-distributeurs/Departements.aspx?regionId=24
CAISSE DE CREDIT MUTUEL DE BOURGES AURON - ST GERMAIN,40 RUE D AURON 18000 BOURGES,18000.0,47.0809208,2.3920391,https://www.creditmutuel.fr/fr/caisses-et-distributeurs/Departements.aspx?regionId=24
CAISSE DE CREDIT MUTUEL DE BOURGES AURON - ST GERMAIN - ST GERMAIN,ROUTE DE LA CHARITE 18000 BOURGES,18000.0,47.0951008,2.4240689,https://www.creditmutuel.fr/fr/caisses-et-distributeurs/Departements.aspx?regionId=24
CAISSE DE CREDIT MUTUEL DE VIERZON,9 RUE BLANCHE BARON 18100 VIERZON,18100.0,47.222427,2.0656138,https://www.creditmutuel.fr/fr/caisses-et-distributeurs/Departements.aspx?regionId=24
CAISSE DE CREDIT MUTUEL D'AUTHON DU PERCHE,9 R DU SOUS LT GERMOND 28330 AUTHON DU PERCHE,28330.0,,,https://www.creditmutuel.fr/fr/caisses-et-distributeurs/Departements.aspx?regionId=24
CAISSE DE CREDIT MUTUEL D'ILLIERS COMBRAY - BAILLEAU LE PIN,1 RUE DU 11 NOVEMBRE 28120 BAILLEAU LE PIN,28120.0,48.366448,1.3274359,https://www.creditmutuel.fr/fr/caisses-et-distributeurs/Departements.aspx?regionId=24
CAISSE DE CREDIT MUTUEL DE BONNEVAL,5 RUE DE LA GREVE 28800 BONNEVAL,28800.0,48.1798285,1.3871838,https://www.creditmutuel.fr/fr/caisses-et-distributeurs/Departements.aspx?regionId=24
CAISSE DE CREDIT MUTUEL DE VERNEUIL BREZOLLES,23 RUE DE PARIS 28270 BREZOLLES,28270.0,48.690344,1.075518,https://www.creditmutuel.fr/fr/caisses-et-distributeurs/Departements.aspx?regionId=24
CAISSE DE CREDIT MUTUEL DE BROU,14 RUE DE LA CHEVALERIE 28160 BROU,28160.0,48.2103165,1.1677614,https://www.creditmutuel.fr/fr/caisses-et-distributeurs/Departements.aspx?regionId=24
CAISSE DE CREDIT MUTUEL DE CHARTRES,4 RUE MATHURIN REGNIER 28000 CHARTRES,28000.0,48.4428888,1.4874513,https://www.creditmutuel.fr/fr/caisses-et-distributeurs/Departements.aspx?regionId=24
CAISSE DE CREDIT MUTUEL CHARTRES MADELEINE,RUE DE LA MADELEINE 28000 CHARTRES,28000.0,48.4486361,1.5109585,https://www.creditmutuel.fr/fr/caisses-et-distributeurs/Departements.aspx?regionId=24
CAISSE DE CREDIT MUTUEL DE CHATEAUDUN,25 PLACE DU 18 OCTOBRE 28200 CHATEAUDUN,28200.0,48.0704097,1.3292761,https://www.creditmutuel.fr/fr/caisses-et-distributeurs/Departements.aspx?regionId=24
CAISSE DE CREDIT MUTUEL CHATEAUNEUF EN THYMERAIS - CHATEAUNEUF EN THYM.,61 RUE JEAN MOULIN 28170 CHATEAUNEUF EN THYMERAIS,28170.0,48.5800065,1.2431302,https://www.creditmutuel.fr/fr/caisses-et-distributeurs/Departements.aspx?regionId=24
CAISSE DE CREDIT MUTUEL DE CLOYES,44 RUE NATIONALE 28220 CLOYES LES TROIS RIVIERES,28220.0,47.997249,1.23468,https://www.creditmutuel.fr/fr/caisses-et-distributeurs/Departements.aspx?regionId=24
CAISSE DE CREDIT MUTUEL DE COURVILLE,54 RUE PANNARD 28190 COURVILLE SUR EURE,28190.0,48.4484531,1.2397982,https://www.creditmutuel.fr/fr/caisses-et-distributeurs/Departements.aspx?regionId=24
CAISSE DE CREDIT MUTUEL D'AUNEAU - GALLARDON,7 RUE DE LA PORTE DE CHARTRES 28320 GALLARDON,28320.0,48.5245921,1.6884797,https://www.creditmutuel.fr/fr/caisses-et-distributeurs/Departements.aspx?regionId=24
BANQUE EUROPEENNE DU CREDIT MUTUEL CHARTRES ENTREPRISE - BECM,4 B AVENUE GUSTAVE EIFFEL 28630 GELLAINVILLE,28630.0,48.4349722,1.5251812,https://www.creditmutuel.fr/fr/caisses-et-distributeurs/Departements.aspx?regionId=24
CAISSE DE CREDIT MUTUEL D'ILLIERS COMBRAY,24 RUE DE CHARTRES 28120 ILLIERS COMBRAY,28120.0,48.3008667,1.2473527,https://www.creditmutuel.fr/fr/caisses-et-distributeurs/Departements.aspx?regionId=24
CAISSE DE CREDIT MUTUEL DE JANVILLE,5 RUE DU BOIS DU LOUP 28310 JANVILLE EN BEAUCE,28310.0,48.195815,1.8898534,https://www.creditmutuel.fr/fr/caisses-et-distributeurs/Departements.aspx?regionId=24
CAISSE DE CREDIT MUTUEL DE LA LOUPE,10 RUE DE L EGLISE 28240 LA LOUPE,28240.0,48.4696956,1.0119599,https://www.creditmutuel.fr/fr/caisses-et-distributeurs/Departements.aspx?regionId=24
CAISSE DE CREDIT MUTUEL DE LEVES,45 AVENUE DE LA PAIX 28300 LEVES,28300.0,48.4867991,1.4735529,https://www.creditmutuel.fr/fr/caisses-et-distributeurs/Departements.aspx?regionId=24
CAISSE DE CREDIT MUTUEL LUCE MAINVILLIERS,118 RUE DE LA REPUBLIQUE 28110 LUCE,28110.0,48.4393885,1.4606995,https://www.creditmutuel.fr/fr/caisses-et-distributeurs/Departements.aspx?regionId=24
CAISSE DE CREDIT MUTUEL DE LUISANT,16 AVENUE DE LA REPUBLIQUE 28600 LUISANT,28600.0,48.4275596,1.4727969,https://www.creditmutuel.fr/fr/caisses-et-distributeurs/Departements.aspx?regionId=24
CAISSE DE CREDIT MUTUEL ENSEIGNANT CENTRE - CME CHARTRES,16 AVENUE DE LA REPUBLIQUE 28600 LUISANT,28600.0,48.4275596,1.4727969,https://www.creditmutuel.fr/fr/caisses-et-distributeurs/Departements.aspx?regionId=24
CAISSE DE CREDIT MUTUEL D'EPERNON - MAINTENON,24 RUE COLLIN D HARLEVILLE 28130 MAINTENON,28130.0,48.5879355,1.5780635,https://www.creditmutuel.fr/fr/caisses-et-distributeurs/Departements.aspx?regionId=24
CAISSE DE CREDIT MUTUEL LUCE MAINVILLIERS,167 RUE DE LA REPUBLIQUE 28300 MAINVILLIERS,28300.0,48.4493888,1.461111,https://www.creditmutuel.fr/fr/caisses-et-distributeurs/Departements.aspx?regionId=24
CAISSE DE CREDIT MUTUEL DE NOGENT LE ROI,6 RUE DE LA VOLAILLE 28210 NOGENT LE ROI,28210.0,48.6486826,1.5328606,https://www.creditmutuel.fr/fr/caisses-et-distributeurs/Departements.aspx?regionId=24
CAISSE DE CREDIT MUTUEL DE NOGENT LE ROTROU,6 RUE DE LA HERSE 28400 NOGENT LE ROTROU,28400.0,48.3217772,0.8199731,https://www.creditmutuel.fr/fr/caisses-et-distributeurs/Departements.aspx?regionId=24
CAISSE DE CREDIT MUTUEL DE PATAY - ORGERES EN BEAUCE,29 RUE DE BELLEVUE 28140 ORGERES EN BEAUCE,28140.0,48.147004,1.685531,https://www.creditmutuel.fr/fr/caisses-et-distributeurs/Departements.aspx?regionId=24
CAISSE DE CREDIT MUTUEL DE CLOYES - ARROU,77 GRANDE RUE 28290 VALD YERRE,28290.0,48.1023358,1.1196468,https://www.creditmutuel.fr/fr/caisses-et-distributeurs/Departements.aspx?regionId=24
CAISSE DE CREDIT MUTUEL DE VERNOUILLET,66 ROUTE DE CRECY 28500 VERNOUILLET,28500.0,48.7309213,1.3383207,https://www.creditmutuel.fr/fr/caisses-et-distributeurs/Departements.aspx?regionId=24
CAISSE DE CREDIT MUTUEL DE CHATEAUROUX,5 RUE JEAN JAURES 36000 CHATEAUROUX,36000.0,46.8116632,1.6927813,https://www.creditmutuel.fr/fr/caisses-et-distributeurs/Departements.aspx?regionId=24
CAISSE DE CREDIT MUTUEL D'ISSOUDUN,1 RUE DE LA REPUBLIQUE 36100 ISSOUDUN,36100.0,46.947883,1.9964049,https://www.creditmutuel.fr/fr/caisses-et-distributeurs/Departements.aspx?regionId=24
CAISSE DE CREDIT MUTUEL D'AMBOISE MONTLOUIS,8 QUAI DU GENERAL DE GAULLE 37400 AMBOISE,37400.0,47.4135446,0.983984,https://www.creditmutuel.fr/fr/caisses-et-distributeurs/Departements.aspx?regionId=24
CAISSE DE CREDIT MUTUEL BALLAN MIRE,2 RUE DU COMMERCE 37510 BALLAN MIRE,37510.0,47.3382364,0.6144337,https://www.creditmutuel.fr/fr/caisses-et-distributeurs/Departements.aspx?regionId=24
CAISSE DE CREDIT MUTUEL DE BOURGUEIL,1 PLACE JULES CIBOT 37140 BOURGUEIL,37140.0,47.281783,0.168228,https://www.creditmutuel.fr/fr/caisses-et-distributeurs/Departements.aspx?regionId=24
CAISSE DE CREDIT MUTUEL TOURS VAL SUD EST - CHAMBRAY LES TOURS,216 AVENUE DU GRAND SUD 37170 CHAMBRAY LES TOURS,37170.0,47.330074,0.706372,https://www.creditmutuel.fr/fr/caisses-et-distributeurs/Departements.aspx?regionId=24
CAISSE DE CREDIT MUTUEL DE CHATEAU RENAULT,12 PLACE JEAN JAURES 37110 CHATEAU RENAULT,37110.0,47.59319,0.9154436,https://www.creditmutuel.fr/fr/caisses-et-distributeurs/Departements.aspx?regionId=24
CAISSE DE CREDIT MUTUEL DE CHINON,82 QUAI JEANNE D ARC 37500 CHINON,37500.0,47.1655327,0.2423359,https://www.creditmutuel.fr/fr/caisses-et-distributeurs/Departements.aspx?regionId=24
CAISSE DE CREDIT MUTUEL FONDETTES,4 BOULEVARD GUSTAVE MARCHANT 37230 FONDETTES,37230.0,,,https://www.creditmutuel.fr/fr/caisses-et-distributeurs/Departements.aspx?regionId=24
CAISSE DE CREDIT MUTUEL DE JOUE LES TOURS,21 AVENUE VICTOR HUGO 37300 JOUE LES TOURS,37300.0,47.351075,0.663516,https://www.creditmutuel.fr/fr/caisses-et-distributeurs/Departements.aspx?regionId=24
CAISSE DE CREDIT MUTUEL DE LA RICHE,40 PLACE SAINTE ANNE 37520 LA RICHE,37520.0,47.3905995,0.6663922,https://www.creditmutuel.fr/fr/caisses-et-distributeurs/Departements.aspx?regionId=24
CAISSE DE CREDIT MUTUEL DE LOCHES,19 RUE DE LA REPUBLIQUE 37600 LOCHES,37600.0,47.1290344,0.998082,https://www.creditmutuel.fr/fr/caisses-et-distributeurs/Departements.aspx?regionId=24
CAISSE DE CREDIT MUTUEL D'AMBOISE MONTLOUIS - MONTLOUIS SUR LOIRE,12 RUE DU SENATEUR BELLE 37270 MONTLOUIS SUR LOIRE,37270.0,47.3851882,0.8263401,https://www.creditmutuel.fr/fr/caisses-et-distributeurs/Departements.aspx?regionId=24
CAISSE DE CREDIT MUTUEL DE TOURS GRAMMONT,25 AVENUE DE GRAMMONT 37000 TOURS,37000.0,47.3868253,0.6899859,https://www.creditmutuel.fr/fr/caisses-et-distributeurs/Departements.aspx?regionId=24
CAISSE DE CREDIT MUTUEL DE TOURS LES HALLES - HALLES,72 RUE DES HALLES 37000 TOURS,37000.0,47.3932992,0.6833739,https://www.creditmutuel.fr/fr/caisses-et-distributeurs/Departements.aspx?regionId=24
BANQUE EUROPEENNE DU CREDIT MUTUEL ORLEANS  ENTREPRISE - TOURS ENTREPRISE,72 RUE DES HALLES 37000 TOURS,37000.0,47.3932992,0.6833739,https://www.creditmutuel.fr/fr/caisses-et-distributeurs/Departements.aspx?regionId=24
CAISSE DE CREDIT MUTUEL D'OUCQUES - OUZOUER LE MARCHE,3 PLACE DE L EGLISE 41240 BEAUCE LA ROMAINE,41240.0,47.9107815,1.5280558,https://www.creditmutuel.fr/fr/caisses-et-distributeurs/Departements.aspx?regionId=24
CAISSE DE CREDIT MUTUEL DE BLOIS - ST GERVAIS,2 RUE DU COMMERCE 41000 BLOIS,41000.0,47.585534,1.3349825,https://www.creditmutuel.fr/fr/caisses-et-distributeurs/Departements.aspx?regionId=24
CAISSE DE CREDIT MUTUEL DE BLOIS - ST GERVAIS - BIBLIOTHEQUE,20 AVENUE DU MARECHAL MAUNOURY 41000 BLOIS,41000.0,47.591382,1.3356583,https://www.creditmutuel.fr/fr/caisses-et-distributeurs/Departements.aspx?regionId=24
CAISSE DE CREDIT MUTUEL DE VENDOME - MONDOUBLEAU,29 PLACE DU MARCHE 41170 MONDOUBLEAU,41170.0,47.9809827,0.8946406,https://www.creditmutuel.fr/fr/caisses-et-distributeurs/Departements.aspx?regionId=24
CAISSE DE CREDIT MUTUEL DE MONTOIRE,12 RUE SAINT DENIS 41800 MONTOIRE SUR LE LOIR,41800.0,47.7536492,0.8633738,https://www.creditmutuel.fr/fr/caisses-et-distributeurs/Departements.aspx?regionId=24
CAISSE DE CREDIT MUTUEL DE CONTRES - MONTRICHARD,55 RUE NATIONALE 41400 MONTRICHARD VAL DE CHER,41400.0,47.3431605,1.1874327,https://www.creditmutuel.fr/fr/caisses-et-distributeurs/Departements.aspx?regionId=24
CAISSE DE CREDIT MUTUEL D'OUCQUES,29 GRANDE RUE 41290 OUCQUES LA NOUVELLE,41290.0,47.8225,1.293914,https://www.creditmutuel.fr/fr/caisses-et-distributeurs/Departements.aspx?regionId=24
CAISSE DE CREDIT MUTUEL DE ROMORANTIN LANTHENAY,1 PLACE DU GENERAL DE GAULLE 41200 ROMORANTIN LANTHENAY,41200.0,47.3610892,1.7433538,https://www.creditmutuel.fr/fr/caisses-et-distributeurs/Departements.aspx?regionId=24
CAISSE DE CREDIT MUTUEL DE VENDOME - MONDOUBLEAU - -MONDOUBLEAU,3 FAUBOURG CHARTRAIN 41100 VENDOME,41100.0,47.7947694,1.0680586,https://www.creditmutuel.fr/fr/caisses-et-distributeurs/Departements.aspx?regionId=24
CAISSE DE CREDIT MUTUEL DE MONTARGIS,1298 AVENUE D ANTIBES 45200 AMILLY,45200.0,47.9754798,2.7332082,https://www.creditmutuel.fr/fr/caisses-et-distributeurs/Departements.aspx?regionId=24
CAISSE DE CREDIT MUTUEL DE JANVILLE - ARTENAY,23 PLACE DE L HOTEL DE VILLE 45410 ARTENAY,45410.0,48.0821274,1.8781715,https://www.creditmutuel.fr/fr/caisses-et-distributeurs/Departements.aspx?regionId=24
CAISSE DE CREDIT MUTUEL DE BEAUGENCY,23 PLACE DU MARTROI 45190 BEAUGENCY,45190.0,47.7769579,1.630065,https://www.creditmutuel.fr/fr/caisses-et-distributeurs/Departements.aspx?regionId=24
CAISSE DE CREDIT MUTUEL DE CHATEAUNEUF SUR LOIRE - CHATEAUNEUF S/ LOIRE,2 PLACE ARISTIDE BRIAND 45110 CHATEAUNEUF SUR LOIRE,45110.0,47.8651152,2.2192853,https://www.creditmutuel.fr/fr/caisses-et-distributeurs/Departements.aspx?regionId=24
CAISSE DE CREDIT MUTUEL DE SAINT JEAN DE BRAYE - CHECY,127 AVENUE NATIONALE 45430 CHECY,45430.0,47.8971419,2.0251945,https://www.creditmutuel.fr/fr/caisses-et-distributeurs/Departements.aspx?regionId=24
CAISSE DE CREDIT MUTUEL DE FLEURY LES AUBRAIS,130 RUE MARCELIN BERTHELOT 45400 FLEURY LES AUBRAIS,45400.0,47.9199133,1.914772,https://www.creditmutuel.fr/fr/caisses-et-distributeurs/Departements.aspx?regionId=24
CAISSE DE CREDIT MUTUEL DE GIEN,3 PLACE SAINT LOUIS 45500 GIEN,45500.0,47.6836047,2.6331197,https://www.creditmutuel.fr/fr/caisses-et-distributeurs/Departements.aspx?regionId=24
CAISSE DE CREDIT MUTUEL DE ST PRYVE ST MESMIN - INGRE,2 AVENUE DE LA GRENAUDIERE 45140 INGRE,45140.0,47.9196831,1.8283374,https://www.creditmutuel.fr/fr/caisses-et-distributeurs/Departements.aspx?regionId=24
CAISSE DE CREDIT MUTUEL DE PITHIVIERS - MALESHERBES,1 RUE DE LA REPUBLIQUE 45330 LE MALESHERBOIS,45330.0,48.295135,2.4162891,https://www.creditmutuel.fr/fr/caisses-et-distributeurs/Departements.aspx?regionId=24
CAISSE DE CREDIT MUTUEL DE MEUNG SUR LOIRE,60 RUE JEHAN DE MEUNG 45130 MEUNG SUR LOIRE,45130.0,47.8247891,1.6947006,https://www.creditmutuel.fr/fr/caisses-et-distributeurs/Departements.aspx?regionId=24
CAISSE DE CREDIT MUTUEL DE NEUVILLE AUX BOIS,2 PLACE DU GENERAL LECLERC 45170 NEUVILLE AUX BOIS,45170.0,48.0692438,2.0530661,https://www.creditmutuel.fr/fr/caisses-et-distributeurs/Departements.aspx?regionId=24
CAISSE DE CREDIT MUTUEL D'OLIVET,370 RUE MARCEL BELOT 45160 OLIVET,45160.0,47.8642512,1.9009047,https://www.creditmutuel.fr/fr/caisses-et-distributeurs/Departements.aspx?regionId=24
CAISSE DE CREDIT MUTUEL LA FERTE - UNIVERSITE - ORLEANS UNIVERSITE,77 RUE DE CHAMPAGNE 45160 OLIVET,45160.0,47.843504,1.9198756,https://www.creditmutuel.fr/fr/caisses-et-distributeurs/Departements.aspx?regionId=24
CAISSE DE CREDIT MUTUEL ENSEIGNANT CENTRE,61 RUE DE LA BRETONNERIE 45000 ORLEANS,45000.0,47.905822,1.9033633,https://www.creditmutuel.fr/fr/caisses-et-distributeurs/Departements.aspx?regionId=24
CAISSE DE CREDIT MUTUEL D'ORLEANS BANNIER,100 RUE BANNIER 45000 ORLEANS,45000.0,47.9060497,1.9022261,https://www.creditmutuel.fr/fr/caisses-et-distributeurs/Departements.aspx?regionId=24
CAISSE DE CREDIT MUTUEL D'ORLEANS CHATELET,29 PLACE DU CHATELET 45000 ORLEANS,45000.0,47.8994222,1.9047127,https://www.creditmutuel.fr/fr/caisses-et-distributeurs/Departements.aspx?regionId=24
CAISSE DE CREDIT MUTUEL DE ST PRYVE ST MESMIN - ORLEANS MADELEINE,103 B RUE DU FAUBOURG MADELEINE 45000 ORLEANS,45000.0,47.899681,1.8803412,https://www.creditmutuel.fr/fr/caisses-et-distributeurs/Departements.aspx?regionId=24
CAISSE DE CREDIT MUTUEL DE PATAY,20 RUE DE LA CROIX BLANCHE 45310 PATAY,45310.0,48.0491624,1.695356,https://www.creditmutuel.fr/fr/caisses-et-distributeurs/Departements.aspx?regionId=24
CAISSE DE CREDIT MUTUEL DE PITHIVIERS,33 RUE AMIRAL GOURDON 45300 PITHIVIERS,45300.0,48.1724964,2.2561901,https://www.creditmutuel.fr/fr/caisses-et-distributeurs/Departements.aspx?regionId=24
CAISSE DE CREDIT MUTUEL D'ORLEANS LES AYDES,224 ANCIENNE ROUTE DE CHARTRES 45770 SARAN,45770.0,47.9341157,1.894018,https://www.creditmutuel.fr/fr/caisses-et-distributeurs/Departements.aspx?regionId=24
CAISSE DE CREDIT MUTUEL DE CHATEAUNEUF SUR LOIRE - SULLY SUR LOIRE,5 RUE DES HUILIERS 45600 SULLY SUR LOIRE,45600.0,47.7654109,2.3752341,https://www.creditmutuel.fr/fr/caisses-et-distributeurs/Departements.aspx?regionId=24
ESPACE CONSEILS PRO CHARLEVILLE-MEZIERES - ECP CHARLEVILLE-MEZIERES,1 RUE NOEL 08000 CHARLEVILLE MEZIERES,8000.0,49.774198,4.7187554,https://www.creditmutuel.fr/fr/caisses-et-distributeurs/Departements.aspx?regionId=44
CAISSE DE CREDIT MUTUEL ENSEIGNANT ARDENNES - CME ARDENNES,2 PLACE DE NEVERS 08000 CHARLEVILLE MEZIERES,8000.0,49.7741532,4.7186439,https://www.creditmutuel.fr/fr/caisses-et-distributeurs/Departements.aspx?regionId=44
CAISSE DE CREDIT MUTUEL CHARLEVILLE - CHARLEVILLE MOHON,2 RUE BAUDIN 08000 CHARLEVILLE MEZIERES,8000.0,49.75244,4.729903,https://www.creditmutuel.fr/fr/caisses-et-distributeurs/Departements.aspx?regionId=44
CAISSE DE CREDIT MUTUEL CHARLEVILLE - MEZIERES,14 AVENUE D ARCHES 08000 CHARLEVILLE MEZIERES,8000.0,49.762757,4.719399,https://www.creditmutuel.fr/fr/caisses-et-distributeurs/Departements.aspx?regionId=44
CAISSE DE CREDIT MUTUEL REVIN - GIVET,48 RUE GAMBETTA 08600 GIVET,8600.0,50.1360265,4.826095,https://www.creditmutuel.fr/fr/caisses-et-distributeurs/Departements.aspx?regionId=44
CAISSE DE CREDIT MUTUEL RETHEL,10 RUE COLBERT 08300 RETHEL,8300.0,49.5073016,4.3643742,https://www.creditmutuel.fr/fr/caisses-et-distributeurs/Departements.aspx?regionId=44
CAISSE DE CREDIT MUTUEL REVIN,46 RUE GAMBETTA 08500 REVIN,8500.0,49.9416703,4.6393772,https://www.creditmutuel.fr/fr/caisses-et-distributeurs/Departements.aspx?regionId=44
CAISSE DE CREDIT MUTUEL SEDAN,25 AVENUE DU MARECHAL LECLERC 08200 SEDAN,8200.0,49.7002005,4.9449107,https://www.creditmutuel.fr/fr/caisses-et-distributeurs/Departements.aspx?regionId=44
CAISSE DE CREDIT MUTUEL VOUZIERS,12 RUE BOURNIZET 08400 VOUZIERS,8400.0,49.3962476,4.6949108,https://www.creditmutuel.fr/fr/caisses-et-distributeurs/Departements.aspx?regionId=44
CAISSE DE CREDIT MUTUEL DE BRIENNE LE CHATEAU - ARCIS SUR AUBE,2 RUE DE CHALONS 10700 ARCIS SUR AUBE,10700.0,48.5369494,4.1420243,https://www.creditmutuel.fr/fr/caisses-et-distributeurs/Departements.aspx?regionId=44
CAISSE DE CREDIT MUTUEL DE LA COTE DES BAR - DE BAR SUR AUBE,149 RUE NATIONALE 10200 BAR SUR AUBE,10200.0,48.2321297,4.7083962,https://www.creditmutuel.fr/fr/caisses-et-distributeurs/Departements.aspx?regionId=44
CAISSE DE CREDIT MUTUEL DE LA COTE DES BAR - BAR SUR SEINE,51 AV DU PR PAUL PORTIER 10110 BAR SUR SEINE,10110.0,,,https://www.creditmutuel.fr/fr/caisses-et-distributeurs/Departements.aspx?regionId=44
CAISSE DE CREDIT MUTUEL DE BRIENNE LE CHATEAU,70 RUE DE L ECOLE MILITAIRE 10500 BRIENNE LE CHATEAU,10500.0,48.3893616,4.5283394,https://www.creditmutuel.fr/fr/caisses-et-distributeurs/Departements.aspx?regionId=44
CAISSE DE CREDIT MUTUEL DE ROMILLY SUR SEINE,21 RUE DE LA BOULE D OR 10100 ROMILLY SUR SEINE,10100.0,48.5186051,3.7263948,https://www.creditmutuel.fr/fr/caisses-et-distributeurs/Departements.aspx?regionId=44
CAISSE DE CREDIT MUTUEL DE TROYES,4 BOULEVARD GAMBETTA 10000 TROYES,10000.0,48.3005706,4.0748563,https://www.creditmutuel.fr/fr/caisses-et-distributeurs/Departements.aspx?regionId=44
ESPACE CONSEILS PRO CHALONS - ECP CHALONS,11 RUE LOCHET 51000 CHALONS EN CHAMPAGNE,51000.0,48.9553333,4.3611739,https://www.creditmutuel.fr/fr/caisses-et-distributeurs/Departements.aspx?regionId=44
CAISSE DE CREDIT MUTUEL CHALONS EN CHAMPAGNE,11 RUE LOCHET 51000 CHALONS EN CHAMPAGNE,51000.0,48.9553333,4.3611739,https://www.creditmutuel.fr/fr/caisses-et-distributeurs/Departements.aspx?regionId=44
CAISSE DE CREDIT MUTUEL EPERNAY,5 RUE JEAN PIERROT 51200 EPERNAY,51200.0,49.042853,3.9550098,https://www.creditmutuel.fr/fr/caisses-et-distributeurs/Departements.aspx?regionId=44
ESPACE CONSEILS PRO REIMS - ECP,14 RUE EDOUARD MIGNOT 51100 REIMS,51100.0,49.2609381,4.0235846,https://www.creditmutuel.fr/fr/caisses-et-distributeurs/Departements.aspx?regionId=44
CAISSE DE CREDIT MUTUEL ENSEIGNANT MARNE - CME MARNE,21 RUE CONDORCET 51100 REIMS,51100.0,49.2541839,4.0280668,https://www.creditmutuel.fr/fr/caisses-et-distributeurs/Departements.aspx?regionId=44
CAISSE DE CREDIT MUTUEL REIMS D ERLON,21 RUE CONDORCET 51100 REIMS,51100.0,49.2541839,4.0280668,https://www.creditmutuel.fr/fr/caisses-et-distributeurs/Departements.aspx?regionId=44
CAISSE DE CREDIT MUTUEL REIMS SAINT REMI,23 ESPLANADE FLECHAMBAULT 51100 REIMS,51100.0,49.2422172,4.0386763,https://www.creditmutuel.fr/fr/caisses-et-distributeurs/Departements.aspx?regionId=44
CAISSE DE CREDIT MUTUEL REIMS D ERLON - SAINT THOMAS,79 AVENUE DE LAON 51100 REIMS,51100.0,49.265938,4.0255021,https://www.creditmutuel.fr/fr/caisses-et-distributeurs/Departements.aspx?regionId=44
CAISSE DE CREDIT MUTUEL REIMS SAINT REMI - EUROPE,146 AVENUE JEAN JAURES 51100 REIMS,51100.0,49.2609178,4.0494018,https://www.creditmutuel.fr/fr/caisses-et-distributeurs/Departements.aspx?regionId=44
CAISSE DE CREDIT MUTUEL REIMS D ERLON - LA NEUVILLETTE,61 AVENUE NATIONALE 51100 REIMS,51100.0,49.2894493,4.0049677,https://www.creditmutuel.fr/fr/caisses-et-distributeurs/Departements.aspx?regionId=44
CAISSE DE CREDIT MUTUEL REIMS SAINT REMI - TINQUEUX,2 T RUE DES ANEMONES 51430 TINQUEUX,51430.0,49.251389,3.9934599,https://www.creditmutuel.fr/fr/caisses-et-distributeurs/Departements.aspx?regionId=44
CAISSE DE CREDIT MUTUEL VITRY LE FRANCOIS,20 PLACE DE LA HALLE 51300 VITRY LE FRANCOIS,51300.0,48.7270114,4.5847115,https://www.creditmutuel.fr/fr/caisses-et-distributeurs/Departements.aspx?regionId=44
CAISSE DE CREDIT MUTUEL DE LANGRES,70 RUE DIDEROT 52200 LANGRES,52200.0,47.8608558,5.333575,https://www.creditmutuel.fr/fr/caisses-et-distributeurs/Departements.aspx?regionId=44
CAISSE DE CREDIT MUTUEL PORTE DES VOSGES - BACCARAT,25 RUE ADRIEN MICHAUT 54120 BACCARAT,54120.0,48.4482744,6.7368249,https://www.creditmutuel.fr/fr/caisses-et-distributeurs/Departements.aspx?regionId=44
CAISSE DE CREDIT MUTUEL POMPEY CHAMPIGNEULLES,8 RUE DE NANCY 54250 CHAMPIGNEULLES,54250.0,48.7342821,6.1684143,https://www.creditmutuel.fr/fr/caisses-et-distributeurs/Departements.aspx?regionId=44
CAISSE DE CREDIT MUTUEL DIEULOUARD,84 AVENUE DU GENERAL DE GAULLE 54380 DIEULOUARD,54380.0,48.8400417,6.0705009,https://www.creditmutuel.fr/fr/caisses-et-distributeurs/Departements.aspx?regionId=44
CAISSE DE CREDIT MUTUEL DU VAL DE MEURTHE,57 RUE CARNOT 54110 DOMBASLE SUR MEURTHE,54110.0,48.6233099,6.3497544,https://www.creditmutuel.fr/fr/caisses-et-distributeurs/Departements.aspx?regionId=44
CAISSE DE CREDIT MUTUEL SAINT MAX ESSEY LES NANCY,91 AVENUE FOCH 54270 ESSEY LES NANCY,54270.0,48.7052936,6.2252881,https://www.creditmutuel.fr/fr/caisses-et-distributeurs/Departements.aspx?regionId=44
CAISSE DE CREDIT MUTUEL DES HAUTS DE LORRAINE,114 RUE DE PARIS 54440 HERSERANGE,54440.0,49.5186225,5.7844828,https://www.creditmutuel.fr/fr/caisses-et-distributeurs/Departements.aspx?regionId=44
CAISSE DE CREDIT MUTUEL NANCY SUD - NANCY SUD - JARVILLE,113 RUE DE LA REPUBLIQUE 54140 JARVILLE LA MALGRANGE,54140.0,48.6690501,6.2076934,https://www.creditmutuel.fr/fr/caisses-et-distributeurs/Departements.aspx?regionId=44
CAISSE DE CREDIT MUTUEL AUMETZ LANDRES,RUE DE LA CROISETTE 54970 LANDRES,54970.0,49.320362,5.8002693,https://www.creditmutuel.fr/fr/caisses-et-distributeurs/Departements.aspx?regionId=44
CAISSE DE CREDIT MUTUEL LIVERDUN,1 RUE DU TIR 54460 LIVERDUN,54460.0,48.7498619,6.0677073,https://www.creditmutuel.fr/fr/caisses-et-distributeurs/Departements.aspx?regionId=44
CAISSE DE CREDIT MUTUEL LONGWY,3 RUE MERCY 54400 LONGWY,54400.0,49.5227754,5.7641768,https://www.creditmutuel.fr/fr/caisses-et-distributeurs/Departements.aspx?regionId=44
CAISSE DE CREDIT MUTUEL NEUVES MAISONS LUDRES,CENTRE COMMERCIAL CHAUDEAU 54710 LUDRES,54710.0,,,https://www.creditmutuel.fr/fr/caisses-et-distributeurs/Departements.aspx?regionId=44
CAISSE DE CREDIT MUTUEL LUNEVILLE,2 PLACE LEOPOLD 54300 LUNEVILLE,54300.0,48.5916186,6.4947822,https://www.creditmutuel.fr/fr/caisses-et-distributeurs/Departements.aspx?regionId=44
CAISSE DE CREDIT MUTUEL NANCY TROIS MAISONS,21 RUE DE LA CITADELLE 54000 NANCY,54000.0,48.6992996,6.177555,https://www.creditmutuel.fr/fr/caisses-et-distributeurs/Departements.aspx?regionId=44
CAISSE DE CREDIT MUTUEL PROFESSIONS DE SANTE 54 - CMPS NANCY,107 AVENUE DE LA LIBERATION 54000 NANCY,54000.0,48.6950003,6.1648589,https://www.creditmutuel.fr/fr/caisses-et-distributeurs/Departements.aspx?regionId=44
CAISSE DE CREDIT MUTUEL NANCY COEUR DE VILLE - PLACE DES VOSGES,16 PLACE DES VOSGES 54000 NANCY,54000.0,48.6852189,6.1868017,https://www.creditmutuel.fr/fr/caisses-et-distributeurs/Departements.aspx?regionId=44
CAISSE DE CREDIT MUTUEL NANCY COEUR DE VILLE - JOFFRE,13 BOULEVARD JOFFRE 54000 NANCY,54000.0,48.689181,6.1765803,https://www.creditmutuel.fr/fr/caisses-et-distributeurs/Departements.aspx?regionId=44
CAISSE DE CREDIT MUTUEL NEUVES MAISONS LUDRES,8 RUE ROGER SALENGRO 54230 NEUVES MAISONS,54230.0,48.6165755,6.1041515,https://www.creditmutuel.fr/fr/caisses-et-distributeurs/Departements.aspx?regionId=44
CAISSE DE CREDIT MUTUEL POMPEY CHAMPIGNEULLES,2 RUE DU GENERAL LECLERC 54340 POMPEY,54340.0,48.7664726,6.1273415,https://www.creditmutuel.fr/fr/caisses-et-distributeurs/Departements.aspx?regionId=44
CAISSE DE CREDIT MUTUEL PONT A MOUSSON,11 B PLACE THIERS 54700 PONT A MOUSSON,54700.0,48.9000676,6.0510016,https://www.creditmutuel.fr/fr/caisses-et-distributeurs/Departements.aspx?regionId=44
CAISSE DE CREDIT MUTUEL TOUL,5 PLACE DE LA REPUBLIQUE 54200 TOUL,54200.0,48.6724372,5.8907957,https://www.creditmutuel.fr/fr/caisses-et-distributeurs/Departements.aspx?regionId=44
CAISSE DE CREDIT MUTUEL DE JARNY - BRIEY,1 A RUE RAYMOND MONDON 54150 VAL DE BRIEY,54150.0,49.2505375,5.9401908,https://www.creditmutuel.fr/fr/caisses-et-distributeurs/Departements.aspx?regionId=44
CAISSE DE CREDIT MUTUEL NANCY SUD - VANDOEUVRE VELODROME,167 AVENUE DU GENERAL LECLERC 54500 VANDOEUVRE LES NANCY,54500.0,48.6670316,6.1661148,https://www.creditmutuel.fr/fr/caisses-et-distributeurs/Departements.aspx?regionId=44
CAISSE DE CREDIT MUTUEL NANCY SUD - POLE PRO NANCY NORD,15 AVENUE DE LA FORET DE HAYE 54500 VANDOEUVRE LES NANCY,54500.0,48.654053,6.1344021,https://www.creditmutuel.fr/fr/caisses-et-distributeurs/Departements.aspx?regionId=44
CAISSE DE CREDIT MUTUEL LAXOU VILLERS,36 B AVENUE DE LA LIBERATION 54600 VILLERS LES NANCY,54600.0,48.6789215,6.1609723,https://www.creditmutuel.fr/fr/caisses-et-distributeurs/Departements.aspx?regionId=44
CAISSE DE CREDIT MUTUEL VILLERUPT,2 PLACE JEANNE D ARC 54190 VILLERUPT,54190.0,,,https://www.creditmutuel.fr/fr/caisses-et-distributeurs/Departements.aspx?regionId=44
CAISSE DE CREDIT MUTUEL MEUSE SUD SAINT DIZIER,3 BOULEVARD DE LA ROCHELLE 55000 BAR LE DUC,55000.0,48.7737996,5.1601303,https://www.creditmutuel.fr/fr/caisses-et-distributeurs/Departements.aspx?regionId=44
CAISSE DE CREDIT MUTUEL MEUSE SUD SAINT DIZIER - COMMERCY,27 PLACE CHARLES DE GAULLE 55200 COMMERCY,55200.0,48.7620534,5.5934749,https://www.creditmutuel.fr/fr/caisses-et-distributeurs/Departements.aspx?regionId=44
CAISSE DE CREDIT MUTUEL MEUSE NORD - STENAY,55 PLACE DE LA REPUBLIQUE 55700 STENAY,55700.0,49.4923577,5.1887865,https://www.creditmutuel.fr/fr/caisses-et-distributeurs/Departements.aspx?regionId=44
CAISSE DE CREDIT MUTUEL SUD EST MOSELLAN - ABRESCHVILLER,68 RUE GENERAL JORDY 57560 ABRESCHVILLER,57560.0,,,https://www.creditmutuel.fr/fr/caisses-et-distributeurs/Departements.aspx?regionId=44
CAISSE DE CREDIT MUTUEL FENSCH HORIZON,112 RUE GEORGES CLEMENCEAU 57440 ALGRANGE,57440.0,,,https://www.creditmutuel.fr/fr/caisses-et-distributeurs/Departements.aspx?regionId=44
CAISSE DE CREDIT MUTUEL ALSTING SPICHEREN,3 RUE DE LA FORET 57515 ALSTING,57515.0,49.1764268,6.9989805,https://www.creditmutuel.fr/fr/caisses-et-distributeurs/Departements.aspx?regionId=44
CAISSE DE CREDIT MUTUEL METZ SUD LES COTEAUX - ARS SUR MOSELLE,2 RUE DE L ARGONNE 57130 ARS SUR MOSELLE,57130.0,49.076396,6.076416,https://www.creditmutuel.fr/fr/caisses-et-distributeurs/Departements.aspx?regionId=44
CAISSE DE CREDIT MUTUEL AUDUN LE TICHE,2 RUE DU MARECHAL FOCH 57390 AUDUN LE TICHE,57390.0,49.4745072,5.9574196,https://www.creditmutuel.fr/fr/caisses-et-distributeurs/Departements.aspx?regionId=44
CAISSE DE CREDIT MUTUEL AUMETZ LANDRES,3 RUE SAINT MARTIN 57710 AUMETZ,57710.0,49.4168063,5.9409273,https://www.creditmutuel.fr/fr/caisses-et-distributeurs/Departements.aspx?regionId=44
CAISSE DE CREDIT MUTUEL COEUR DE LORRAINE - BEHREN LES FORBACH,2 RUE PAUL BIENVENU 57460 BEHREN LES FORBACH,57460.0,,,https://www.creditmutuel.fr/fr/caisses-et-distributeurs/Departements.aspx?regionId=44
CAISSE DE CREDIT MUTUEL DU PAYS DE BITCHE,58 RUE DU MARECHAL FOCH 57230 BITCHE,57230.0,49.0509865,7.4254968,https://www.creditmutuel.fr/fr/caisses-et-distributeurs/Departements.aspx?regionId=44
CAISSE DE CREDIT MUTUEL DU VAL DE NIED,26 RUE DE LA REPUBLIQUE 57320 BOUZONVILLE,57320.0,49.2914076,6.5342559,https://www.creditmutuel.fr/fr/caisses-et-distributeurs/Departements.aspx?regionId=44
CAISSE DE CREDIT MUTUEL CARLING L HOPITAL,152 RUE PRINCIPALE 57490 CARLING,57490.0,49.1631032,6.7154071,https://www.creditmutuel.fr/fr/caisses-et-distributeurs/Departements.aspx?regionId=44
CAISSE DE CREDIT MUTUEL DES TROIS FRONTIERES,9 AVENUE DU GENERAL DE GAULLE 57570 CATTENOM,57570.0,,,https://www.creditmutuel.fr/fr/caisses-et-distributeurs/Departements.aspx?regionId=44
CAISSE DE CREDIT MUTUEL CLOUANGE ROMBAS,52 RUE CLEMENCEAU 57185 CLOUANGE,57185.0,49.260294,6.094444,https://www.creditmutuel.fr/fr/caisses-et-distributeurs/Departements.aspx?regionId=44
CAISSE DE CREDIT MUTUEL CREUTZWALD,36 RUE DE LA GARE 57150 CREUTZWALD,57150.0,49.2036492,6.6942095,https://www.creditmutuel.fr/fr/caisses-et-distributeurs/Departements.aspx?regionId=44
CAISSE DE CREDIT MUTUEL PAYS DE LUTZELBOURG DABO,11 RUE SAINT LEON IX 57850 DABO,57850.0,48.6541278,7.2393432,https://www.creditmutuel.fr/fr/caisses-et-distributeurs/Departements.aspx?regionId=44
CAISSE DE CREDIT MUTUEL SECTEUR FAREBERSVILLER - DIEBLING,52 RUE PRINCIPALE 57980 DIEBLING,57980.0,49.1082479,6.9419376,https://www.creditmutuel.fr/fr/caisses-et-distributeurs/Departements.aspx?regionId=44
CAISSE DE CREDIT MUTUEL DU SAULNOIS,5 PLACE DU MARCHE 57260 DIEUZE,57260.0,48.8114135,6.71918,https://www.creditmutuel.fr/fr/caisses-et-distributeurs/Departements.aspx?regionId=44
CAISSE DE CREDIT MUTUEL DE LA HOUVE,47 A RUE DE LA GARE 57550 FALCK,57550.0,49.221188,6.637503,https://www.creditmutuel.fr/fr/caisses-et-distributeurs/Departements.aspx?regionId=44
CAISSE DE CREDIT MUTUEL VAL DE FENSCH - FAMECK,4 PLACE DU MARCHE 57290 FAMECK,57290.0,49.3061212,6.1020741,https://www.creditmutuel.fr/fr/caisses-et-distributeurs/Departements.aspx?regionId=44
CAISSE DE CREDIT MUTUEL SECTEUR FAREBERSVILLER,4 RUE DU CALVAIRE 57450 FAREBERSVILLER,57450.0,49.1149571,6.8638976,https://www.creditmutuel.fr/fr/caisses-et-distributeurs/Departements.aspx?regionId=44
CAISSE DE CREDIT MUTUEL SECTEUR FAREBERSVILLER - CITE,PLACE DU MARCHE 57450 FAREBERSVILLER,57450.0,49.1204833,6.8808165,https://www.creditmutuel.fr/fr/caisses-et-distributeurs/Departements.aspx?regionId=44
CAISSE DE CREDIT MUTUEL COEUR DE MOSELLE - FAULQUEMONT,14 RUE DE METZ 57380 FAULQUEMONT,57380.0,49.041738,6.599632,https://www.creditmutuel.fr/fr/caisses-et-distributeurs/Departements.aspx?regionId=44
CAISSE DE CREDIT MUTUEL ETANGS ET DEUX PROVINCES,1 RUE DU MARECHAL LECLERC 57930 FENETRANGE,57930.0,48.845933,7.0199759,https://www.creditmutuel.fr/fr/caisses-et-distributeurs/Departements.aspx?regionId=44
CAISSE DE CREDIT MUTUEL RIVES DE MOSELLE,150 GRAND RUE 57190 FLORANGE,57190.0,49.3290997,6.1281738,https://www.creditmutuel.fr/fr/caisses-et-distributeurs/Departements.aspx?regionId=44
CAISSE DE CREDIT MUTUEL DE FURST,30 AVENUE FOCH 57730 FOLSCHVILLER,57730.0,49.0728065,6.6896149,https://www.creditmutuel.fr/fr/caisses-et-distributeurs/Departements.aspx?regionId=44
CAISSE DE CREDIT MUTUEL FENSCH HORIZON - FONTOY,5 RUE DE METZ 57650 FONTOY,57650.0,49.356878,5.998443,https://www.creditmutuel.fr/fr/caisses-et-distributeurs/Departements.aspx?regionId=44
CAISSE DE CREDIT MUTUEL FREYMING MERLEBACH ET ENVIRONS,2 RUE GEORGES BIZET 57800 FREYMING MERLEBACH,57800.0,49.1434641,6.8026057,https://www.creditmutuel.fr/fr/caisses-et-distributeurs/Departements.aspx?regionId=44
CAISSE DE CREDIT MUTUEL FREYMING MERLEBACH ET ENVIRONS,14 RUE EUGENE KLOSTER 57800 FREYMING MERLEBACH,57800.0,49.148369,6.81777,https://www.creditmutuel.fr/fr/caisses-et-distributeurs/Departements.aspx?regionId=44
CAISSE DE CREDIT MUTUEL GOETZENBRUCK ET ENVIRONS,61 RUE DE BITCHE 57620 GOETZENBRUCK,57620.0,48.9866581,7.3827637,https://www.creditmutuel.fr/fr/caisses-et-distributeurs/Departements.aspx?regionId=44
CAISSE DE CREDIT MUTUEL DE L UNION,31 RUE DE LA LIBERTE 57520 GROSBLIEDERSTROFF,57520.0,49.1580889,7.0272967,https://www.creditmutuel.fr/fr/caisses-et-distributeurs/Departements.aspx?regionId=44
